Country,Air Quality Network,Air Quality Network Name,Air Quality Station EoI Code,Air Quality Station Name,Sampling Point Id,Air Pollutant,Air Pollutant Description,Data Aggregation Process Id,Data Aggregation Process,Year,Air Pollution Level,Unit Of Air Pollution Level,Data Coverage,Verification,Air Quality Station Type,Air Quality Station Area,Longitude,Latitude,Altitude,City,City Code,City Population,Source Of Data Flow,Calculation Time,Link to raw data (only E1a/validated data from AQ e-Reporting)
"Italy","NET.IT224A","PIEMONTE - SISTEMA REGIONALE DI RILEVAMENTO DELLA QUALITA' DELL'ARIA","IT2118A","Mondovì Aragno","SPO.IT2118A_20_GC-PID_2013-12-13_00:00:00","C6H6","Benzene (air)","P1Y","Annual mean / 1 calendar year","2021","0.000","ug/m3","1.75","3","Traffic","Urban","7.8146","44.4019","409.0","","","","E2a/UTD AQ e-Reporting","02/02/2022 03:54:33",""
"Italy","NET.IT224A","PIEMONTE - SISTEMA REGIONALE DI RILEVAMENTO DELLA QUALITA' DELL'ARIA","IT1878A","Vercelli - CONI","SPO.IT1878A_5012_ICP-MS_2007-02-05_00:00:00","Pb in PM10","Lead in PM10 (aerosol)","P1Y","Annual mean / 1 calendar year","2021","0.007","ug/m3","8.50","2","Background","Suburban","8.4024","45.3189","131.0","","","","E2a/UTD AQ e-Reporting","02/02/2022 03:54:33",""
"Italy","NET.IT123A","PROVINCIA DELLA SPEZIA","IT1886A","PIAZZA SAINT BON - LA SPEZIA","SPO.IT1886A_10_NDIR_2008-01-01_00:00:00","CO","Carbon monoxide (air)","P1Y","Annual mean / 1 calendar year","2021","0.052","mg/m3","72.32","2","Traffic","Urban","9.8158","44.1101","5.0","La Spezia                                                                       ","IT036C1                                           ","93757","E2a/UTD AQ e-Reporting","02/02/2022 03:54:33",""
"Italy","NET.IT271A","ITALGREEN","IT2143A","Monopoli Italgreen","SPO.IT2143A_20_GC-FID_2014-01-01_00:00:00","C6H6","Benzene (air)","P1Y","Annual mean / 1 calendar year","2021","0.067","ug/m3","61.23","3","Traffic","Suburban","17.2842","40.9614","15.0","","","","E2a/UTD AQ e-Reporting","02/02/2022 03:54:33",""
"Italy","NET.IT279A","RETE REGIONALE QUALITA' DELL'ARIA DELLA TOSCANA","IT2154A","LI-PIOMBINO-PARCO-VIII-MARZO","SPO.IT2154A_20_GC-FID_2015-04-01_00:00:00","C6H6","Benzene (air)","P1Y","Annual mean / 1 calendar year","2021","0.081","ug/m3","89.79","3","Background","Urban","10.5242","42.9319","40.0","","","","E2a/UTD AQ e-Reporting","02/02/2022 03:54:33",""
"Italy","NET.IT236A","RETE SIMAGE BRINDISI","IT1704A","brindisi SISRI","SPO.IT1704A_20_GC-FID_2014-01-01_00:00:00","C6H6","Benzene (air)","P1Y","Annual mean / 1 calendar year","2021","0.091","ug/m3","68.77","3","Industrial","Suburban","17.9781","40.6203","10.0","","","","E2a/UTD AQ e-Reporting","02/02/2022 03:54:33",""
"Italy","NET.IT224A","PIEMONTE - SISTEMA REGIONALE DI RILEVAMENTO DELLA QUALITA' DELL'ARIA","IT1878A","Vercelli - CONI","SPO.IT1878A_5014_ICP-MS_2007-02-05_00:00:00","Cd in PM10","Cadmium in PM10 (aerosol)","P1Y","Annual mean / 1 calendar year","2021","0.100","ng/m3","8.50","2","Background","Suburban","8.4024","45.3189","131.0","","","","E2a/UTD AQ e-Reporting","02/02/2022 03:54:33",""
"Italy","NET.IT219A","RETE SIMAGE","IT1609A","Taranto CISI","SPO.IT1609A_20_GC-FID_2005-05-01_00:00:00","C6H6","Benzene (air)","P1Y","Annual mean / 1 calendar year","2021","0.110","ug/m3","73.17","3","Industrial","Suburban","17.2042","40.5211","10.0","","","","E2a/UTD AQ e-Reporting","02/02/2022 03:54:33",""
"Italy","NET.IT247A","PROVINCIA DI BARI","IT1817A","MONOPOLI","SPO.IT1817A_20_GC-FID_2009-07-01_00:00:00","C6H6","Benzene (air)","P1Y","Annual mean / 1 calendar year","2021","0.115","ug/m3","72.93","3","Traffic","Suburban","17.2903","40.9567","10.0","","","","E2a/UTD AQ e-Reporting","02/02/2022 03:54:33",""
"Italy","NET.IT229A","COMUNE DI LECCE","IT1932A","GARIGLIANO","SPO.IT1932A_20_GC-FID_2008-01-01_00:00:00","C6H6","Benzene (air)","P1Y","Annual mean / 1 calendar year","2021","0.121","ug/m3","75.08","3","Traffic","Urban","18.1731","40.3644","58.0","Lecce                                                                           ","IT037C1                                           ","94305","E2a/UTD AQ e-Reporting","02/02/2022 03:54:33",""
"Italy","NET.IT250A","RETE REGIONALE DI RILEVAMENTO DELLA QUALITÀ DELL'ARIA DI ARPA SICILIA","IT1890A","Enna","SPO.IT1890A_20_GC-FID_2008-05-14_00:00:00","C6H6","Benzene (air)","P1Y","Annual mean / 1 calendar year","2021","0.124","ug/m3","35.66","3","Background","Urban","14.2815","37.5641","925.0","","","","E2a/UTD AQ e-Reporting","02/02/2022 03:54:33",""
"Italy","NET.IT270A","ENEL_EDIPOWER","IT2139A","TERMINAL PASSEGGERI","SPO.IT2139A_20_GC-FID_2013-01-01_00:00:00","C6H6","Benzene (air)","P1Y","Annual mean / 1 calendar year","2021","0.134","ug/m3","69.78","3","Industrial","Suburban","17.9606","40.6458","20.0","","","","E2a/UTD AQ e-Reporting","02/02/2022 03:54:33",""
"Italy","NET.IT250A","RETE REGIONALE DI RILEVAMENTO DELLA QUALITÀ DELL'ARIA DI ARPA SICILIA","IT2274A","Porto Empedocle","SPO.IT2274A_10_IR-GFC_2016-06-16_00:00:00","CO","Carbon monoxide (air)","P1Y","Annual mean / 1 calendar year","2021","0.142","mg/m3","79.05","3","Background","Suburban","13.5323","37.2917","0.0","","","","E2a/UTD AQ e-Reporting","02/02/2022 03:54:33",""
"Italy","NET.IT249A","RETE DI RILEVAMENTO DELLA QUALITA' DELL'ARIA DELLA CITTA' DI L'AQUILA","IT1856A","AQ - Amiternum","SPO.IT1856A_20_GC-FID_2013-01-01_00:00:00","C6H6","Benzene (air)","P1Y","Annual mean / 1 calendar year","2021","0.153","ug/m3","71.14","3","Background","Urban","13.3831","42.3642","673.0","","","","E2a/UTD AQ e-Reporting","02/02/2022 03:54:33",""
"Italy","NET.IT224A","PIEMONTE - SISTEMA REGIONALE DI RILEVAMENTO DELLA QUALITA' DELL'ARIA","IT1676A","Novara - Roma","SPO.IT1676A_20_GC-PID_2010-01-27_00:00:00","C6H6","Benzene (air)","P1Y","Annual mean / 1 calendar year","2021","0.153","ug/m3","1.20","3","Traffic","Urban","8.6197","45.4403","157.0","Novara                                                                          ","IT516C1                                           ","101983","E2a/UTD AQ e-Reporting","02/02/2022 03:54:33",""
"Italy","NET.IT223A","REGIONE PUGLIA","IT1606A","Caldarola","SPO.IT1606A_20_GC-FID_2004-05-01_00:00:00","C6H6","Benzene (air)","P1Y","Annual mean / 1 calendar year","2021","0.167","ug/m3","74.03","3","Traffic","Urban","16.8881","41.1136","10.0","Bari                                                                            ","IT008C1                                           ","312579","E2a/UTD AQ e-Reporting","02/02/2022 03:54:33",""
"Italy","NET.IT236A","RETE SIMAGE BRINDISI","IT1701A","brindisi VIA DEI MILLE","SPO.IT1701A_20_GC-FID_2015-03-16_00:00:00","C6H6","Benzene (air)","P1Y","Annual mean / 1 calendar year","2021","0.168","ug/m3","70.02","3","Traffic","Suburban","17.9383","40.6381","10.0","","","","E2a/UTD AQ e-Reporting","02/02/2022 03:54:33",""
"Italy","NET.IT223A","REGIONE PUGLIA","IT1618A","Brindisi VIA TARANTO","SPO.IT1618A_20_GC-FID_2004-05-01_00:00:00","C6H6","Benzene (air)","P1Y","Annual mean / 1 calendar year","2021","0.170","ug/m3","77.50","3","Traffic","Urban","17.9481","40.6439","10.0","","","","E2a/UTD AQ e-Reporting","02/02/2022 03:54:33",""
"Italy","NET.IT247A","PROVINCIA DI BARI","IT1817A","MONOPOLI","SPO.IT1817A_10_IR-GFC_2009-07-01_00:00:00","CO","Carbon monoxide (air)","P1Y","Annual mean / 1 calendar year","2021","0.173","mg/m3","71.58","3","Traffic","Suburban","17.2903","40.9567","10.0","","","","E2a/UTD AQ e-Reporting","02/02/2022 03:54:33",""
"Italy","NET.IT256A","RETE DI RILEVAMENTO QUALITA' DELL'ARIA DISTRETTI CHIETI-PESCARA","IT2163A","Parco Nazionale Maiella","SPO.IT2163A_20_GC-FID_2017-01-01_00:00:00","C6H6","Benzene (air)","P1Y","Annual mean / 1 calendar year","2021","0.176","ug/m3","83.37","3","Background","Rural","14.0289","42.1194","913.0","","","","E2a/UTD AQ e-Reporting","02/02/2022 03:54:33",""
"Italy","NET.IT223A","REGIONE PUGLIA","IT1598A","Manfredonia VIA DEI MANDORLI","SPO.IT1598A_20_GC-FID_2005-01-01_00:00:00","C6H6","Benzene (air)","P1Y","Annual mean / 1 calendar year","2021","0.186","ug/m3","73.13","3","Traffic","Suburban","15.9094","41.6283","20.0","","","","E2a/UTD AQ e-Reporting","02/02/2022 03:54:33",""
"Italy","NET.IT106A","Provincia Regionale di Messina IX Dipartimento 1° U.D. Tutela Aria","IT1829A","ME - Boccetta","SPO.IT1829A_10_IR-GFC_2016-01-01_00:00:00","CO","Carbon monoxide (air)","P1Y","Annual mean / 1 calendar year","2021","0.189","mg/m3","43.33","3","Traffic","Urban","15.5529","38.1983","10.0","Messina                                                                         ","IT501C1                                           ","243536","E2a/UTD AQ e-Reporting","02/02/2022 03:54:33",""
"Italy","NET.IT247A","PROVINCIA DI BARI","IT1822A","ANDRIA","SPO.IT1822A_20_GC-FID_2009-07-01_00:00:00","C6H6","Benzene (air)","P1Y","Annual mean / 1 calendar year","2021","0.190","ug/m3","69.95","3","Traffic","Urban","16.2917","41.2317","10.0","","","","E2a/UTD AQ e-Reporting","02/02/2022 03:54:33",""
"Italy","NET.IT280A","RETE MONITORAGGIO ARIA REGIONE SARDEGNA","IT1576A","CENPS7","SPO.IT1576A_10_NDIR_2012-01-01_00:00:00","CO","Carbon monoxide (air)","P1Y","Annual mean / 1 calendar year","2021","0.196","mg/m3","67.29","3","Background","Suburban","8.3861","39.2033","25.0","","","","E2a/UTD AQ e-Reporting","02/02/2022 03:54:33",""
"Italy","NET.IT280A","RETE MONITORAGGIO ARIA REGIONE SARDEGNA","IT2010A","CENPT1","SPO.IT2010A_10_NDIR_2012-01-01_00:00:00","CO","Carbon monoxide (air)","P1Y","Annual mean / 1 calendar year","2021","0.198","mg/m3","66.14","3","Background","Urban","8.4053","40.8314","16.0","","","","E2a/UTD AQ e-Reporting","02/02/2022 03:54:33",""
"Italy","NET.IT230A","PROVINCIA DI TARANTO","IT1680A","Martina Franca","SPO.IT1680A_20_GC-FID_2016-07-23_00:00:00","C6H6","Benzene (air)","P1Y","Annual mean / 1 calendar year","2021","0.198","ug/m3","68.68","3","Traffic","Urban","17.3319","40.7008","400.0","","","","E2a/UTD AQ e-Reporting","02/02/2022 03:54:33",""
"Italy","NET.IT224A","PIEMONTE - SISTEMA REGIONALE DI RILEVAMENTO DELLA QUALITA' DELL'ARIA","IT1878A","Vercelli - CONI","SPO.IT1878A_5029_GC-MS_2007-02-05_00:00:00","BaP in PM10","Benzo(a)pyrene in PM10 (aerosol)","P1Y","Annual mean / 1 calendar year","2021","0.200","ng/m3","8.50","2","Background","Suburban","8.4024","45.3189","131.0","","","","E2a/UTD AQ e-Reporting","02/02/2022 03:54:33",""
"Italy","NET.IT273A","ENEL BRINDISI","IT2148A","Ceglie Messapica","SPO.IT2148A_20_GC-FID_2014-01-01_00:00:00","C6H6","Benzene (air)","P1Y","Annual mean / 1 calendar year","2021","0.200","ug/m3","71.19","3","Background","Suburban","17.5125","40.6492","100.0","","","","E2a/UTD AQ e-Reporting","02/02/2022 03:54:33",""
"Italy","NET.IT229A","COMUNE DI LECCE","IT1932A","GARIGLIANO","SPO.IT1932A_10_IR-GFC_2008-01-01_00:00:00","CO","Carbon monoxide (air)","P1Y","Annual mean / 1 calendar year","2021","0.200","mg/m3","73.64","3","Traffic","Urban","18.1731","40.3644","58.0","Lecce                                                                           ","IT037C1                                           ","94305","E2a/UTD AQ e-Reporting","02/02/2022 03:54:33",""
"Italy","NET.IT280A","RETE MONITORAGGIO ARIA REGIONE SARDEGNA","IT1309A","CENS10","SPO.IT1309A_10_NDIR_2006-01-01_00:00:00","CO","Carbon monoxide (air)","P1Y","Annual mean / 1 calendar year","2021","0.214","mg/m3","66.37","3","Traffic","Urban","9.5017","40.9283","15.0","","","","E2a/UTD AQ e-Reporting","02/02/2022 03:54:33",""
"Italy","NET.IT230A","PROVINCIA DI TARANTO","IT2021A","Massafra","SPO.IT2021A_20_GC-FID_2014-01-01_00:00:00","C6H6","Benzene (air)","P1Y","Annual mean / 1 calendar year","2021","0.219","ug/m3","71.06","3","Traffic","Urban","17.1158","40.5919","118.0","","","","E2a/UTD AQ e-Reporting","02/02/2022 03:54:33",""
"Italy","NET.IT250A","RETE REGIONALE DI RILEVAMENTO DELLA QUALITÀ DELL'ARIA DI ARPA SICILIA","IT0813A","Gela - Via Venezia","SPO.IT0813A_10_IR-GFC_1992-01-18_00:00:00","CO","Carbon monoxide (air)","P1Y","Annual mean / 1 calendar year","2021","0.223","mg/m3","69.52","3","Traffic","Urban","14.2590","37.0687","15.0","","","","E2a/UTD AQ e-Reporting","02/02/2022 03:54:33",""
"Italy","NET.IT250A","RETE REGIONALE DI RILEVAMENTO DELLA QUALITÀ DELL'ARIA DI ARPA SICILIA","IT1889A","Termini Imerese","SPO.IT1889A_10_IR-GFC_2008-04-18_00:00:00","CO","Carbon monoxide (air)","P1Y","Annual mean / 1 calendar year","2021","0.223","mg/m3","68.56","3","Background","Urban","13.6880","37.9779","101.0","","","","E2a/UTD AQ e-Reporting","02/02/2022 03:54:33",""
"Italy","NET.IT223A","REGIONE PUGLIA","IT1606A","Caldarola","SPO.IT1606A_10_IR-GFC_2004-05-01_00:00:00","CO","Carbon monoxide (air)","P1Y","Annual mean / 1 calendar year","2021","0.232","mg/m3","73.63","3","Traffic","Urban","16.8881","41.1136","10.0","Bari                                                                            ","IT008C1                                           ","312579","E2a/UTD AQ e-Reporting","02/02/2022 03:54:33",""
"Italy","NET.IT280A","RETE MONITORAGGIO ARIA REGIONE SARDEGNA","IT1243A","CENS12","SPO.IT1243A_10_NDIR_2006-01-01_00:00:00","CO","Carbon monoxide (air)","P1Y","Annual mean / 1 calendar year","2021","0.233","mg/m3","66.66","3","Traffic","Suburban","8.5514","40.7103","192.0","Sassari                                                                         ","IT026C1                                           ","123440","E2a/UTD AQ e-Reporting","02/02/2022 03:54:33",""
"Italy","NET.IT223A","REGIONE PUGLIA","IT1658A","TORCHIAROLO","SPO.IT1658A_10_IR-GFC_2004-05-01_00:00:00","CO","Carbon monoxide (air)","P1Y","Annual mean / 1 calendar year","2021","0.235","mg/m3","65.64","3","Industrial","Suburban","18.0536","40.4881","10.0","","","","E2a/UTD AQ e-Reporting","02/02/2022 03:54:33",""
"Italy","NET.IT224A","PIEMONTE - SISTEMA REGIONALE DI RILEVAMENTO DELLA QUALITA' DELL'ARIA","IT2118A","Mondovì Aragno","SPO.IT2118A_10_NDIR_2014-02-05_00:00:00","CO","Carbon monoxide (air)","P1Y","Annual mean / 1 calendar year","2021","0.238","mg/m3","90.49","3","Traffic","Urban","7.8146","44.4019","409.0","","","","E2a/UTD AQ e-Reporting","02/02/2022 03:54:33",""
"Italy","NET.IT250A","RETE REGIONALE DI RILEVAMENTO DELLA QUALITÀ DELL'ARIA DI ARPA SICILIA","IT1889A","Termini Imerese","SPO.IT1889A_20_GC-FID_2008-04-18_00:00:00","C6H6","Benzene (air)","P1Y","Annual mean / 1 calendar year","2021","0.238","ug/m3","35.88","3","Background","Urban","13.6880","37.9779","101.0","","","","E2a/UTD AQ e-Reporting","02/02/2022 03:54:33",""
"Italy","NET.IT133A","MONITORING NETWORK OF REGIONE BASILICATA","IT2204A","VIGGIANO - MASSERIA DE BLASIIS","SPO.IT2204A_10_NDIR_2013-03-01_00:00:00","CO","Carbon monoxide (air)","P1Y","Annual mean / 1 calendar year","2021","0.242","mg/m3","65.17","3","Industrial","Rural","15.8674","40.3242","603.0","","","","E2a/UTD AQ e-Reporting","02/02/2022 03:54:33",""
"Italy","NET.IT250A","RETE REGIONALE DI RILEVAMENTO DELLA QUALITÀ DELL'ARIA DI ARPA SICILIA","IT1890A","Enna","SPO.IT1890A_10_IR-GFC_2008-05-14_00:00:00","CO","Carbon monoxide (air)","P1Y","Annual mean / 1 calendar year","2021","0.253","mg/m3","72.82","3","Background","Urban","14.2815","37.5641","925.0","","","","E2a/UTD AQ e-Reporting","02/02/2022 03:54:33",""
"Italy","NET.IT127A","PROVINCIA DI SAVONA","IT2038A","REGIONE CAVALLO - ALBENGA","SPO.IT2038A_10_NDIR_2011-01-01_00:00:00","CO","Carbon monoxide (air)","P1Y","Annual mean / 1 calendar year","2021","0.257","mg/m3","70.17","2","Traffic","Urban","8.2069","44.0519","2.0","","","","E2a/UTD AQ e-Reporting","02/02/2022 03:54:33",""
"Italy","NET.IT137A","RETE DI RILEVAMENTO DELLA QUALITA' DELL'ARIA DELLA CITTA' DI PESCARA","IT1423A","PE - TEATRO D'ANNUNZIO","SPO.IT1423A_10_NDIR_1998-01-02_00:00:00","CO","Carbon monoxide (air)","P1Y","Annual mean / 1 calendar year","2021","0.259","mg/m3","67.50","3","Background","Urban","14.2347","42.4564","4.0","Pescara                                                                         ","IT019C1                                           ","119285","E2a/UTD AQ e-Reporting","02/02/2022 03:54:33",""
"Italy","NET.IT133A","MONITORING NETWORK OF REGIONE BASILICATA","IT2205A","VIGGIANO - COSTA MOLINA SUD 1","SPO.IT2205A_20_GC-PID_2013-03-01_00:00:00","C6H6","Benzene (air)","P1Y","Annual mean / 1 calendar year","2021","0.268","ug/m3","66.46","3","Industrial","Rural","15.9548","40.3156","690.0","","","","E2a/UTD AQ e-Reporting","02/02/2022 03:54:33",""
"Italy","NET.IT218A","COMUNE DI BARI","IT1621A","CAVOUR","SPO.IT1621A_10_IR-GFC_2009-07-01_00:00:00","CO","Carbon monoxide (air)","P1Y","Annual mean / 1 calendar year","2021","0.269","mg/m3","76.48","3","Traffic","Urban","16.8733","41.1233","10.0","Bari                                                                            ","IT008C1                                           ","312579","E2a/UTD AQ e-Reporting","02/02/2022 03:54:33",""
"Italy","NET.IT092A","Rete di Rilevamento della Qualità dell'Aria della Provincia di Brescia","IT0740A","SAREZZO","SPO.IT0740A_10_NDIR_2000-07-01_00:00:00","CO","Carbon monoxide (air)","P1Y","Annual mean / 1 calendar year","2021","0.270","mg/m3","93.18","3","Background","Urban","10.2008","45.6550","274.0","","","","E2a/UTD AQ e-Reporting","02/02/2022 03:54:33",""
"Italy","NET.IT280A","RETE MONITORAGGIO ARIA REGIONE SARDEGNA","IT1993A","CENMO1","SPO.IT1993A_10_NDIR_2010-05-24_00:00:00","CO","Carbon monoxide (air)","P1Y","Annual mean / 1 calendar year","2021","0.277","mg/m3","66.50","3","Background","Urban","9.1364","39.2606","15.0","","","","E2a/UTD AQ e-Reporting","02/02/2022 03:54:33",""
"Italy","NET.IT236A","RETE SIMAGE BRINDISI","IT1704A","brindisi SISRI","SPO.IT1704A_10_IR-GFC_2004-05-01_00:00:00","CO","Carbon monoxide (air)","P1Y","Annual mean / 1 calendar year","2021","0.277","mg/m3","71.40","3","Industrial","Suburban","17.9781","40.6203","10.0","","","","E2a/UTD AQ e-Reporting","02/02/2022 03:54:33",""
"Italy","NET.IT137A","RETE DI RILEVAMENTO DELLA QUALITA' DELL'ARIA DELLA CITTA' DI PESCARA","IT1423A","PE - TEATRO D'ANNUNZIO","SPO.IT1423A_1_UV-FL_1998-01-02_00:00:00","SO2","Sulphur dioxide (air)","P1Y","Annual mean / 1 calendar year","2021","0.280","ug/m3","67.96","3","Background","Urban","14.2347","42.4564","4.0","Pescara                                                                         ","IT019C1                                           ","119285","E2a/UTD AQ e-Reporting","02/02/2022 03:54:33",""
"Italy","NET.IT112A","Regione Lazio","IT2250A","Fiumaretta","SPO.IT2250A_20_GC-PID_2017-10-03_00:00:00","C6H6","Benzene (air)","P1Y","Annual mean / 1 calendar year","2021","0.284","ug/m3","84.34","3","Traffic","Urban","11.7844","42.1022","3.0","","","","E2a/UTD AQ e-Reporting","02/02/2022 03:54:33",""
"Italy","NET.IT279A","RETE REGIONALE QUALITA' DELL'ARIA DELLA TOSCANA","IT0063A","LI-COTONE","SPO.IT0063A_10_NDIR_2001-10-01_00:00:00","CO","Carbon monoxide (air)","P1Y","Annual mean / 1 calendar year","2021","0.284","mg/m3","89.90","3","Industrial","Suburban","10.5342","42.9392","37.0","","","","E2a/UTD AQ e-Reporting","02/02/2022 03:54:33",""
"Italy","NET.IT112A","Regione Lazio","IT0863A","VITERBO","SPO.IT0863A_10_NDIR_1998-09-11_00:00:00","CO","Carbon monoxide (air)","P1Y","Annual mean / 1 calendar year","2021","0.285","mg/m3","89.21","3","Traffic","Urban","12.1092","42.4219","338.0","","","","E2a/UTD AQ e-Reporting","02/02/2022 03:54:33",""
"Italy","NET.IT250A","RETE REGIONALE DI RILEVAMENTO DELLA QUALITÀ DELL'ARIA DI ARPA SICILIA","IT2281A","AG - ASP","SPO.IT2281A_20_GC-FID_2017-02-23_00:00:00","C6H6","Benzene (air)","P1Y","Annual mean / 1 calendar year","2021","0.285","ug/m3","36.18","3","Background","Suburban","13.6004","37.2993","265.0","","","","E2a/UTD AQ e-Reporting","02/02/2022 03:54:33",""
"Italy","NET.IT229A","COMUNE DI LECCE","IT2044A","LIBERTINI","SPO.IT2044A_10_IR-GFC_2012-01-01_00:00:00","CO","Carbon monoxide (air)","P1Y","Annual mean / 1 calendar year","2021","0.292","mg/m3","72.96","3","Traffic","Urban","18.1767","40.3519","50.0","Lecce                                                                           ","IT037C1                                           ","94305","E2a/UTD AQ e-Reporting","02/02/2022 03:54:33",""
"Italy","NET.IT280A","RETE MONITORAGGIO ARIA REGIONE SARDEGNA","IT2056A","CENCA1","SPO.IT2056A_10_NDIR_2012-01-01_00:00:00","CO","Carbon monoxide (air)","P1Y","Annual mean / 1 calendar year","2021","0.295","mg/m3","66.11","3","Traffic","Urban","9.1150","39.2358","33.0","Cagliari                                                                        ","IT027C1                                           ","151697","E2a/UTD AQ e-Reporting","02/02/2022 03:54:33",""
"Italy","NET.IT112A","Regione Lazio","IT2174A","Latina De Chirico","SPO.IT2174A_10_IR-GFC_2013-12-18_00:00:00","CO","Carbon monoxide (air)","P1Y","Annual mean / 1 calendar year","2021","0.296","mg/m3","87.74","3","Traffic","Urban","12.8917","41.4511","21.0","Latina                                                                          ","IT513C1                                           ","116984","E2a/UTD AQ e-Reporting","02/02/2022 03:54:33",""
"Italy","NET.IT250A","RETE REGIONALE DI RILEVAMENTO DELLA QUALITÀ DELL'ARIA DI ARPA SICILIA","IT0817A","Niscemi","SPO.IT0817A_10_NDIR_1992-01-18_00:00:00","CO","Carbon monoxide (air)","P1Y","Annual mean / 1 calendar year","2021","0.297","mg/m3","51.27","3","Traffic","Urban","14.3907","37.1474","305.0","","","","E2a/UTD AQ e-Reporting","02/02/2022 03:54:33",""
"Italy","NET.IT133A","MONITORING NETWORK OF REGIONE BASILICATA","IT1897A","Lavello","SPO.IT1897A_10_NDIR_2008-01-01_00:00:00","CO","Carbon monoxide (air)","P1Y","Annual mean / 1 calendar year","2021","0.298","mg/m3","79.69","3","Industrial","Urban","15.7876","41.0460","319.0","","","","E2a/UTD AQ e-Reporting","02/02/2022 03:54:33",""
"Italy","NET.IT127A","PROVINCIA DI SAVONA","IT1883A","VARALDO - SAVONA","SPO.IT1883A_20_GC-PID_2014-01-01_00:00:00","C6H6","Benzene (air)","P1Y","Annual mean / 1 calendar year","2021","0.300","ug/m3","64.42","2","Background","Urban","8.4856","44.3153","55.0","Savona                                                                          ","IT052C1                                           ","59175","E2a/UTD AQ e-Reporting","02/02/2022 03:54:33",""
"Italy","NET.IT116A","MONITORAGGIO AMBIENTALE DELLA REGIONE CAMPANIA A CURA DELL'A.R.P.A.C.","IT2273A","Polla Area tritovagliatore","SPO.IT2273A_10_NDIR_2016-11-18_00:00:00","CO","Carbon monoxide (air)","P1Y","Annual mean / 1 calendar year","2021","0.300","mg/m3","81.29","3","Industrial","Suburban","15.5283","40.4870","445.0","","","","E2a/UTD AQ e-Reporting","02/02/2022 03:54:33",""
"Italy","NET.IT279A","RETE REGIONALE QUALITA' DELL'ARIA DELLA TOSCANA","IT2184A","SI-BRACCI","SPO.IT2184A_10_NDIR_2014-11-01_00:00:00","CO","Carbon monoxide (air)","P1Y","Annual mean / 1 calendar year","2021","0.300","mg/m3","90.45","3","Traffic","Urban","11.3250","43.3378","316.0","","","","E2a/UTD AQ e-Reporting","02/02/2022 03:54:33",""
"Italy","NET.IT133A","MONITORING NETWORK OF REGIONE BASILICATA","IT1741A","Ferrandina","SPO.IT1741A_10_NDIR_2006-04-15_00:00:00","CO","Carbon monoxide (air)","P1Y","Annual mean / 1 calendar year","2021","0.304","mg/m3","74.84","3","Industrial","Rural","16.4962","40.4858","63.0","","","","E2a/UTD AQ e-Reporting","02/02/2022 03:54:33",""
"Italy","NET.IT133A","MONITORING NETWORK OF REGIONE BASILICATA","IT2205A","VIGGIANO - COSTA MOLINA SUD 1","SPO.IT2205A_10_NDIR_2013-03-01_00:00:00","CO","Carbon monoxide (air)","P1Y","Annual mean / 1 calendar year","2021","0.305","mg/m3","67.33","3","Industrial","Rural","15.9548","40.3156","690.0","","","","E2a/UTD AQ e-Reporting","02/02/2022 03:54:33",""
"Italy","NET.IT133A","MONITORING NETWORK OF REGIONE BASILICATA","IT1585A","POTENZA - VIALE UNICEF","SPO.IT1585A_10_NDIR_2003-05-29_00:00:00","CO","Carbon monoxide (air)","P1Y","Annual mean / 1 calendar year","2021","0.305","mg/m3","76.31","3","Traffic","Urban","15.7964","40.6279","673.0","Potenza                                                                         ","IT023C1                                           ","66649","E2a/UTD AQ e-Reporting","02/02/2022 03:54:33",""
"Italy","NET.IT273A","ENEL BRINDISI","IT2148A","Ceglie Messapica","SPO.IT2148A_10_IR-GFC_2014-04-01_00:00:00","CO","Carbon monoxide (air)","P1Y","Annual mean / 1 calendar year","2021","0.306","mg/m3","71.83","3","Background","Suburban","17.5125","40.6492","100.0","","","","E2a/UTD AQ e-Reporting","02/02/2022 03:54:33",""
"Italy","NET.IT250A","RETE REGIONALE DI RILEVAMENTO DELLA QUALITÀ DELL'ARIA DI ARPA SICILIA","IT1898A","Trapani","SPO.IT1898A_10_NDIR_2008-09-16_00:00:00","CO","Carbon monoxide (air)","P1Y","Annual mean / 1 calendar year","2021","0.307","mg/m3","75.42","3","Background","Urban","12.5469","38.0124","40.0","","","","E2a/UTD AQ e-Reporting","02/02/2022 03:54:33",""
"Italy","NET.IT116A","MONITORAGGIO AMBIENTALE DELLA REGIONE CAMPANIA A CURA DELL'A.R.P.A.C.","IT2269A","Parco Mercatello","SPO.IT2269A_10_NDIR_2016-03-09_00:00:00","CO","Carbon monoxide (air)","P1Y","Annual mean / 1 calendar year","2021","0.307","mg/m3","83.25","3","Background","Urban","14.8045","40.6614","11.0","Salerno                                                                         ","IT032C1                                           ","136954","E2a/UTD AQ e-Reporting","02/02/2022 03:54:33",""
"Italy","NET.IT152A","EX MNS","IT1420A","ATESSA","SPO.IT1420A_10_NDIR_2016-01-01_00:00:00","CO","Carbon monoxide (air)","P1Y","Annual mean / 1 calendar year","2021","0.309","mg/m3","80.73","3","Industrial","Suburban","14.4411","42.1417","61.0","","","","E2a/UTD AQ e-Reporting","02/02/2022 03:54:33",""
"Italy","NET.IT252A","RETE REGIONALE UMBRIA","IT1901A","PIAZZA 40 MARTIRI","SPO.IT1901A_10_NDIR_2008-01-01_00:00:00","CO","Carbon monoxide (air)","P1Y","Annual mean / 1 calendar year","2021","0.309","mg/m3","94.34","3","Background","Urban","12.5764","43.3528","498.0","","","","E2a/UTD AQ e-Reporting","02/02/2022 03:54:33",""
"Italy","NET.IT280A","RETE MONITORAGGIO ARIA REGIONE SARDEGNA","IT2008A","CESGI1","SPO.IT2008A_10_NDIR_2011-02-17_00:00:00","CO","Carbon monoxide (air)","P1Y","Annual mean / 1 calendar year","2021","0.309","mg/m3","65.30","3","Background","Urban","8.6053","39.8853","4.0","","","","E2a/UTD AQ e-Reporting","02/02/2022 03:54:33",""
"Italy","NET.IT223A","REGIONE PUGLIA","IT1598A","Manfredonia VIA DEI MANDORLI","SPO.IT1598A_10_IR-GFC_2005-01-01_00:00:00","CO","Carbon monoxide (air)","P1Y","Annual mean / 1 calendar year","2021","0.312","mg/m3","75.64","3","Traffic","Suburban","15.9094","41.6283","20.0","","","","E2a/UTD AQ e-Reporting","02/02/2022 03:54:33",""
"Italy","NET.IT133A","MONITORING NETWORK OF REGIONE BASILICATA","IT2203A","VIGGIANO 1","SPO.IT2203A_10_NDIR_2013-03-01_00:00:00","CO","Carbon monoxide (air)","P1Y","Annual mean / 1 calendar year","2021","0.314","mg/m3","70.57","3","Industrial","Rural","15.9007","40.3349","820.0","","","","E2a/UTD AQ e-Reporting","02/02/2022 03:54:33",""
"Italy","NET.IT250A","RETE REGIONALE DI RILEVAMENTO DELLA QUALITÀ DELL'ARIA DI ARPA SICILIA","IT1899A","Misterbianco","SPO.IT1899A_10_NDIR_2008-09-25_00:00:00","CO","Carbon monoxide (air)","P1Y","Annual mean / 1 calendar year","2021","0.317","mg/m3","8.47","3","Background","Urban","15.0108","37.5157","160.0","","","","E2a/UTD AQ e-Reporting","02/02/2022 03:54:33",""
"Italy","NET.IT280A","RETE MONITORAGGIO ARIA REGIONE SARDEGNA","IT2010A","CENPT1","SPO.IT2010A_1_UV-FL_2011-02-04_00:00:00","SO2","Sulphur dioxide (air)","P1Y","Annual mean / 1 calendar year","2021","0.317","ug/m3","65.74","3","Background","Urban","8.4053","40.8314","16.0","","","","E2a/UTD AQ e-Reporting","02/02/2022 03:54:33",""
"Italy","NET.IT237A","PROVINCIA DI LECCE","IT1953A","La Porta","SPO.IT1953A_10_IR-GFC_2009-01-01_00:00:00","CO","Carbon monoxide (air)","P1Y","Annual mean / 1 calendar year","2021","0.319","mg/m3","72.50","3","Industrial","Suburban","18.1736","40.1681","50.0","","","","E2a/UTD AQ e-Reporting","02/02/2022 03:54:33",""
"Italy","NET.IT133A","MONITORING NETWORK OF REGIONE BASILICATA","IT2204A","VIGGIANO - MASSERIA DE BLASIIS","SPO.IT2204A_20_GC-PID_2013-03-01_00:00:00","C6H6","Benzene (air)","P1Y","Annual mean / 1 calendar year","2021","0.320","ug/m3","63.44","3","Industrial","Rural","15.8674","40.3242","603.0","","","","E2a/UTD AQ e-Reporting","02/02/2022 03:54:33",""
"Italy","NET.IT133A","MONITORING NETWORK OF REGIONE BASILICATA","IT1740A","San Nicola di Melfi","SPO.IT1740A_10_NDIR_2006-03-08_00:00:00","CO","Carbon monoxide (air)","P1Y","Annual mean / 1 calendar year","2021","0.324","mg/m3","78.09","3","Industrial","Rural","15.7227","41.0671","187.0","","","","E2a/UTD AQ e-Reporting","02/02/2022 03:54:33",""
"Italy","NET.IT116A","MONITORAGGIO AMBIENTALE DELLA REGIONE CAMPANIA A CURA DELL'A.R.P.A.C.","IT2210A","Solofra Zona Industriale","SPO.IT2210A_10_NDIR_2015-01-01_00:00:00","CO","Carbon monoxide (air)","P1Y","Annual mean / 1 calendar year","2021","0.324","mg/m3","86.15","3","Industrial","Suburban","14.8246","40.8356","303.0","","","","E2a/UTD AQ e-Reporting","02/02/2022 03:54:33",""
"Italy","NET.IT253A","ARPACAL","IT2110A","Acri","SPO.IT2110A_10_IR-GFC_2014-12-15_00:00:00","CO","Carbon monoxide (air)","P1Y","Annual mean / 1 calendar year","2021","0.325","mg/m3","87.83","3","Background","Urban","16.3868","39.4896","758.0","","","","E2a/UTD AQ e-Reporting","02/02/2022 03:54:33",""
"Italy","NET.IT112A","Regione Lazio","IT0888A","COLLEFERRO OBERDAN","SPO.IT0888A_10_NDIR_1993-01-08_00:00:00","CO","Carbon monoxide (air)","P1Y","Annual mean / 1 calendar year","2021","0.325","mg/m3","89.90","3","Background","Suburban","13.0044","41.7308","217.0","","","","E2a/UTD AQ e-Reporting","02/02/2022 03:54:33",""
"Italy","NET.IT252A","RETE REGIONALE UMBRIA","IT2004A","FONTIVEGGE1","SPO.IT2004A_10_NDIR_2010-02-26_00:00:00","CO","Carbon monoxide (air)","P1Y","Annual mean / 1 calendar year","2021","0.327","mg/m3","75.55","3","Traffic","Urban","12.3747","43.1044","305.0","Perugia                                                                         ","IT016C1                                           ","162047","E2a/UTD AQ e-Reporting","02/02/2022 03:54:33",""
"Italy","NET.IT250A","RETE REGIONALE DI RILEVAMENTO DELLA QUALITÀ DELL'ARIA DI ARPA SICILIA","IT0815A","Gela - Enimed","SPO.IT0815A_20_GC-FID_2015-01-01_00:00:00","C6H6","Benzene (air)","P1Y","Annual mean / 1 calendar year","2021","0.328","ug/m3","36.96","3","Background","Suburban","14.2835","37.0629","13.0","","","","E2a/UTD AQ e-Reporting","02/02/2022 03:54:33",""
"Italy","NET.IT253A","ARPACAL","IT2094A","Mammola","SPO.IT2094A_10_IR-GFC_2015-09-11_00:00:00","CO","Carbon monoxide (air)","P1Y","Annual mean / 1 calendar year","2021","0.331","mg/m3","78.69","3","Background","Rural","16.2345","38.3909","660.0","","","","E2a/UTD AQ e-Reporting","02/02/2022 03:54:33",""
"Italy","NET.IT085A","PROVINCIAL MONITORING NETWORK OF BOLZANO","IT1334A","BZ5 Bolzano","SPO.IT1334A_10_NDIR_1998-10-21_00:00:00","CO","Carbon monoxide (air)","P1Y","Annual mean / 1 calendar year","2021","0.333","mg/m3","87.27","3","Traffic","Urban","11.3403","46.4953","260.0","Bolzano                                                                         ","IT034C1                                           ","104014","E2a/UTD AQ e-Reporting","02/02/2022 03:54:33",""
"Italy","NET.IT223A","REGIONE PUGLIA","IT2019A","Rosati","SPO.IT2019A_10_IR-GFC_2011-02-08_00:00:00","CO","Carbon monoxide (air)","P1Y","Annual mean / 1 calendar year","2021","0.334","mg/m3","71.86","3","Background","Urban","15.5478","41.4539","76.0","Foggia                                                                          ","IT031C1                                           ","146735","E2a/UTD AQ e-Reporting","02/02/2022 03:54:33",""
"Italy","NET.IT133A","MONITORING NETWORK OF REGIONE BASILICATA","IT1895A","Pisticci","SPO.IT1895A_10_NDIR_2007-01-10_00:00:00","CO","Carbon monoxide (air)","P1Y","Annual mean / 1 calendar year","2021","0.338","mg/m3","75.64","3","Industrial","Rural","16.5484","40.4204","55.0","","","","E2a/UTD AQ e-Reporting","02/02/2022 03:54:33",""
"Italy","NET.IT270A","ENEL_EDIPOWER","IT2139A","TERMINAL PASSEGGERI","SPO.IT2139A_10_IR-GFC_2014-01-01_00:00:00","CO","Carbon monoxide (air)","P1Y","Annual mean / 1 calendar year","2021","0.340","mg/m3","68.90","3","Industrial","Suburban","17.9606","40.6458","20.0","","","","E2a/UTD AQ e-Reporting","02/02/2022 03:54:33",""
"Italy","NET.IT280A","RETE MONITORAGGIO ARIA REGIONE SARDEGNA","IT1277A","CENSN1","SPO.IT1277A_1_UV-FL_1998-03-01_00:00:00","SO2","Sulphur dioxide (air)","P1Y","Annual mean / 1 calendar year","2021","0.340","ug/m3","67.03","3","Background","Urban","9.6944","40.5750","39.0","","","","E2a/UTD AQ e-Reporting","02/02/2022 03:54:33",""
"Italy","NET.IT256A","RETE DI RILEVAMENTO QUALITA' DELL'ARIA DISTRETTI CHIETI-PESCARA","IT2165A","Villa Caldari","SPO.IT2165A_10_NDIR_2017-01-01_00:00:00","CO","Carbon monoxide (air)","P1Y","Annual mean / 1 calendar year","2021","0.341","mg/m3","79.18","3","Background","Suburban","14.3558","42.2931","201.0","","","","E2a/UTD AQ e-Reporting","02/02/2022 03:54:33",""
"Italy","NET.IT133A","MONITORING NETWORK OF REGIONE BASILICATA","IT1744A","La Martella","SPO.IT1744A_10_NDIR_2006-05-30_00:00:00","CO","Carbon monoxide (air)","P1Y","Annual mean / 1 calendar year","2021","0.344","mg/m3","75.90","3","Industrial","Suburban","16.5471","40.6867","245.0","","","","E2a/UTD AQ e-Reporting","02/02/2022 03:54:33",""
"Italy","NET.IT256A","RETE DI RILEVAMENTO QUALITA' DELL'ARIA DISTRETTI CHIETI-PESCARA","IT2164A","ASL CEPAGATTI","SPO.IT2164A_20_GC-MS_2017-01-01_00:00:00","C6H6","Benzene (air)","P1Y","Annual mean / 1 calendar year","2021","0.348","ug/m3","72.60","3","Background","Rural","14.0678","42.3581","132.0","","","","E2a/UTD AQ e-Reporting","02/02/2022 03:54:33",""
"Italy","NET.IT091A","Rete di Rilevamento della Qualità dell'Aria della Provincia di Bergamo","IT0707A","BERGAMO - VIA MEUCCI","SPO.IT0707A_10_NDIR_2005-01-01_00:00:00","CO","Carbon monoxide (air)","P1Y","Annual mean / 1 calendar year","2021","0.348","mg/m3","95.76","3","Background","Urban","9.6439","45.6903","249.0","Bergamo                                                                         ","IT511C1                                           ","118048","E2a/UTD AQ e-Reporting","02/02/2022 03:54:33",""
"Italy","NET.IT223A","REGIONE PUGLIA","IT1611A","taranto MACHIAVELLI","SPO.IT1611A_10_IR-GFC_2010-01-01_00:00:00","CO","Carbon monoxide (air)","P1Y","Annual mean / 1 calendar year","2021","0.351","mg/m3","73.97","3","Industrial","Suburban","17.2258","40.4886","10.0","","","","E2a/UTD AQ e-Reporting","02/02/2022 03:54:33",""
"Italy","NET.IT256A","RETE DI RILEVAMENTO QUALITA' DELL'ARIA DISTRETTI CHIETI-PESCARA","IT1977A","MONTESILVANO","SPO.IT1977A_10_NDIR_2009-06-15_00:00:00","CO","Carbon monoxide (air)","P1Y","Annual mean / 1 calendar year","2021","0.351","mg/m3","74.02","3","Traffic","Urban","14.1483","42.5175","5.0","","","","E2a/UTD AQ e-Reporting","02/02/2022 03:54:33",""
"Italy","NET.IT114A","Rete di Rilevamento della Qualità dell'Aria della Provincia di Sondrio","IT1190A","MORBEGNO","SPO.IT1190A_10_NDIR_1998-09-01_00:00:00","CO","Carbon monoxide (air)","P1Y","Annual mean / 1 calendar year","2021","0.351","mg/m3","95.42","3","Background","Urban","9.5664","46.1317","262.0","","","","E2a/UTD AQ e-Reporting","02/02/2022 03:54:33",""
"Italy","NET.IT139A","PROVINCIA DI IMPERIA","IT1882A","PIAZZA BATTISTI - SANREMO","SPO.IT1882A_20_GC-PID_2019-01-01_00:00:00","C6H6","Benzene (air)","P1Y","Annual mean / 1 calendar year","2021","0.352","ug/m3","69.95","2","Traffic","Urban","7.7722","43.8144","16.0","Sanremo                                                                         ","IT051C1                                           ","54978","E2a/UTD AQ e-Reporting","02/02/2022 03:54:33",""
"Italy","NET.IT250A","RETE REGIONALE DI RILEVAMENTO DELLA QUALITÀ DELL'ARIA DI ARPA SICILIA","IT1898A","Trapani","SPO.IT1898A_20_GC-FID_2008-09-16_00:00:00","C6H6","Benzene (air)","P1Y","Annual mean / 1 calendar year","2021","0.352","ug/m3","36.13","3","Background","Urban","12.5469","38.0124","40.0","","","","E2a/UTD AQ e-Reporting","02/02/2022 03:54:33",""
"Italy","NET.IT100A","Rete di Rilevamento della Qualità dell'Aria della Provincia di Pavia","IT1746A","FERRERA ERBOGNONE - Eni","SPO.IT1746A_10_NDIR_2006-01-20_00:00:00","CO","Carbon monoxide (air)","P1Y","Annual mean / 1 calendar year","2021","0.354","mg/m3","91.61","3","Industrial","Rural","8.8750","45.1144","88.0","","","","E2a/UTD AQ e-Reporting","02/02/2022 03:54:33",""
"Italy","NET.IT109A","Rete di Rilevamento della Qualità dell'Aria della Provincia di Cremona","IT1153A","CREMONA - P.ZZA CADORNA","SPO.IT1153A_10_NDIR_1997-12-01_00:00:00","CO","Carbon monoxide (air)","P1Y","Annual mean / 1 calendar year","2021","0.356","mg/m3","94.39","3","Traffic","Urban","10.0167","45.1328","45.0","Cremona                                                                         ","IT013C1                                           ","70682","E2a/UTD AQ e-Reporting","02/02/2022 03:54:33",""
"Italy","NET.IT249A","RETE DI RILEVAMENTO DELLA QUALITA' DELL'ARIA DELLA CITTA' DI L'AQUILA","IT2159A","San Gregorio","SPO.IT2159A_20_GC-FID_2017-01-01_00:00:00","C6H6","Benzene (air)","P1Y","Annual mean / 1 calendar year","2021","0.358","ug/m3","86.12","3","Background","Suburban","13.4894","42.3300","584.0","","","","E2a/UTD AQ e-Reporting","02/02/2022 03:54:33",""
"Italy","NET.IT282A","RETE REGIONALE QUALITÀ ARIA AMBIENTE","IT1795A","Macerata COLLEVARIO","SPO.IT1795A_10_NDIR_2006-02-20_00:00:00","CO","Carbon monoxide (air)","P1Y","Annual mean / 1 calendar year","2021","0.358","mg/m3","77.18","3","Background","Suburban","13.4286","43.2850","225.0","","","","E2a/UTD AQ e-Reporting","02/02/2022 03:54:33",""
"Italy","NET.IT250A","RETE REGIONALE DI RILEVAMENTO DELLA QUALITÀ DELL'ARIA DI ARPA SICILIA","IT1888A","Partinico","SPO.IT1888A_10_IR-GFC_2008-04-18_00:00:00","CO","Carbon monoxide (air)","P1Y","Annual mean / 1 calendar year","2021","0.359","mg/m3","72.27","3","Background","Urban","13.1186","38.0502","187.0","","","","E2a/UTD AQ e-Reporting","02/02/2022 03:54:33",""
"Italy","NET.IT250A","RETE REGIONALE DI RILEVAMENTO DELLA QUALITÀ DELL'ARIA DI ARPA SICILIA","IT2274A","Porto Empedocle","SPO.IT2274A_20_GC-FID_2016-06-16_00:00:00","C6H6","Benzene (air)","P1Y","Annual mean / 1 calendar year","2021","0.362","ug/m3","14.37","3","Background","Suburban","13.5323","37.2917","0.0","","","","E2a/UTD AQ e-Reporting","02/02/2022 03:54:33",""
"Italy","NET.IT254A","PROVINCIA DI BRINDISI","IT2018A","Filzi","SPO.IT2018A_20_GC-FID_2010-01-01_00:00:00","C6H6","Benzene (air)","P1Y","Annual mean / 1 calendar year","2021","0.363","ug/m3","72.08","3","Traffic","Suburban","17.5875","40.5275","139.0","","","","E2a/UTD AQ e-Reporting","02/02/2022 03:54:33",""
"Italy","NET.IT279A","RETE REGIONALE QUALITA' DELL'ARIA DELLA TOSCANA","IT1654A","PO-ROMA","SPO.IT1654A_20_GC-FID_2014-01-01_00:00:00","C6H6","Benzene (air)","P1Y","Annual mean / 1 calendar year","2021","0.364","ug/m3","89.14","3","Background","Urban","11.0919","43.8728","54.0","Prato                                                                           ","IT502C1                                           ","184463","E2a/UTD AQ e-Reporting","02/02/2022 03:54:33",""
"Italy","NET.IT279A","RETE REGIONALE QUALITA' DELL'ARIA DELLA TOSCANA","IT0832A","AR-REPUBBLICA","SPO.IT0832A_10_NDIR_1995-01-01_00:00:00","CO","Carbon monoxide (air)","P1Y","Annual mean / 1 calendar year","2021","0.371","mg/m3","89.67","3","Traffic","Urban","11.8767","43.4625","256.0","","","","E2a/UTD AQ e-Reporting","02/02/2022 03:54:33",""
"Italy","NET.IT218A","COMUNE DI BARI","IT1621A","CAVOUR","SPO.IT1621A_20_GC-FID_2009-07-01_00:00:00","C6H6","Benzene (air)","P1Y","Annual mean / 1 calendar year","2021","0.373","ug/m3","74.84","3","Traffic","Urban","16.8733","41.1233","10.0","Bari                                                                            ","IT008C1                                           ","312579","E2a/UTD AQ e-Reporting","02/02/2022 03:54:33",""
"Italy","NET.IT133A","MONITORING NETWORK OF REGIONE BASILICATA","IT2202A","GRUMENTO 3","SPO.IT2202A_20_GC-PID_2013-03-01_00:00:00","C6H6","Benzene (air)","P1Y","Annual mean / 1 calendar year","2021","0.374","ug/m3","66.20","3","Industrial","Suburban","15.8914","40.2884","735.0","","","","E2a/UTD AQ e-Reporting","02/02/2022 03:54:33",""
"Italy","NET.IT114A","Rete di Rilevamento della Qualità dell'Aria della Provincia di Sondrio","IT0908A","BORMIO","SPO.IT0908A_10_NDIR_1993-11-01_00:00:00","CO","Carbon monoxide (air)","P1Y","Annual mean / 1 calendar year","2021","0.374","mg/m3","95.24","3","Background","Urban","10.3725","46.4703","1225.0","","","","E2a/UTD AQ e-Reporting","02/02/2022 03:54:33",""
"Italy","NET.IT250A","RETE REGIONALE DI RILEVAMENTO DELLA QUALITÀ DELL'ARIA DI ARPA SICILIA","IT2030A","Gela - Ex Autoparco","SPO.IT2030A_20_GC-FID_2010-01-01_00:00:00","C6H6","Benzene (air)","P1Y","Annual mean / 1 calendar year","2021","0.374","ug/m3","35.45","3","Background","Suburban","14.2971","37.0559","9.0","","","","E2a/UTD AQ e-Reporting","02/02/2022 03:54:33",""
"Italy","NET.IT133A","MONITORING NETWORK OF REGIONE BASILICATA","IT2203A","VIGGIANO 1","SPO.IT2203A_20_GC-PID_2013-03-01_00:00:00","C6H6","Benzene (air)","P1Y","Annual mean / 1 calendar year","2021","0.377","ug/m3","69.47","3","Industrial","Rural","15.9007","40.3349","820.0","","","","E2a/UTD AQ e-Reporting","02/02/2022 03:54:33",""
"Italy","NET.IT223A","REGIONE PUGLIA","IT1658A","TORCHIAROLO","SPO.IT1658A_20_GC-FID_2009-05-01_00:00:00","C6H6","Benzene (air)","P1Y","Annual mean / 1 calendar year","2021","0.382","ug/m3","69.28","3","Industrial","Suburban","18.0536","40.4881","10.0","","","","E2a/UTD AQ e-Reporting","02/02/2022 03:54:33",""
"Italy","NET.IT092A","Rete di Rilevamento della Qualità dell'Aria della Provincia di Brescia","IT0846A","REZZATO","SPO.IT0846A_10_NDIR_1992-11-01_00:00:00","CO","Carbon monoxide (air)","P1Y","Annual mean / 1 calendar year","2021","0.382","mg/m3","93.20","3","Industrial","Suburban","10.3131","45.5047","147.0","","","","E2a/UTD AQ e-Reporting","02/02/2022 03:54:33",""
"Italy","NET.IT133A","MONITORING NETWORK OF REGIONE BASILICATA","IT1674A","Potenza - S.L.Branca","SPO.IT1674A_10_NDIR_2006-03-22_00:00:00","CO","Carbon monoxide (air)","P1Y","Annual mean / 1 calendar year","2021","0.383","mg/m3","79.13","3","Industrial","Suburban","15.8729","40.6439","720.0","","","","E2a/UTD AQ e-Reporting","02/02/2022 03:54:33",""
"Italy","NET.IT223A","REGIONE PUGLIA","IT1618A","Brindisi VIA TARANTO","SPO.IT1618A_10_IR-GFC_2004-05-01_00:00:00","CO","Carbon monoxide (air)","P1Y","Annual mean / 1 calendar year","2021","0.384","mg/m3","75.45","3","Traffic","Urban","17.9481","40.6439","10.0","","","","E2a/UTD AQ e-Reporting","02/02/2022 03:54:33",""
"Italy","NET.IT133A","MONITORING NETWORK OF REGIONE BASILICATA","IT1742A","Viggiano","SPO.IT1742A_10_NDIR_2006-03-06_00:00:00","CO","Carbon monoxide (air)","P1Y","Annual mean / 1 calendar year","2021","0.385","mg/m3","71.63","3","Industrial","Rural","15.9046","40.3141","604.0","","","","E2a/UTD AQ e-Reporting","02/02/2022 03:54:33",""
"Italy","NET.IT236A","RETE SIMAGE BRINDISI","IT1704A","brindisi SISRI","SPO.IT1704A_1_UV-FL_2004-05-01_00:00:00","SO2","Sulphur dioxide (air)","P1Y","Annual mean / 1 calendar year","2021","0.385","ug/m3","69.69","3","Industrial","Suburban","17.9781","40.6203","10.0","","","","E2a/UTD AQ e-Reporting","02/02/2022 03:54:33",""
"Italy","NET.IT119A","Aosta Valley Air Quality Network","IT0983A","AOSTA (PIAZZA PLOUVES)","SPO.IT0983A_10_NDIR_1999-01-01_00:00:00","CO","Carbon monoxide (air)","P1Y","Annual mean / 1 calendar year","2021","0.394","mg/m3","87.66","1","Background","Urban","7.3242","45.7358","581.0","","","","E2a/UTD AQ e-Reporting","02/02/2022 03:54:33",""
"Italy","NET.IT133A","MONITORING NETWORK OF REGIONE BASILICATA","IT2202A","GRUMENTO 3","SPO.IT2202A_10_NDIR_2013-03-01_00:00:00","CO","Carbon monoxide (air)","P1Y","Annual mean / 1 calendar year","2021","0.401","mg/m3","67.24","3","Industrial","Suburban","15.8914","40.2884","735.0","","","","E2a/UTD AQ e-Reporting","02/02/2022 03:54:33",""
"Italy","NET.IT250A","RETE REGIONALE DI RILEVAMENTO DELLA QUALITÀ DELL'ARIA DI ARPA SICILIA","IT2275A","ME - Villa Dante","SPO.IT2275A_20_GC-FID_2015-01-01_00:00:00","C6H6","Benzene (air)","P1Y","Annual mean / 1 calendar year","2021","0.401","ug/m3","37.32","3","Background","Urban","15.5465","38.1743","0.0","Messina                                                                         ","IT501C1                                           ","243536","E2a/UTD AQ e-Reporting","02/02/2022 03:54:33",""
"Italy","NET.IT223A","REGIONE PUGLIA","IT1660A","Taranto ARCHIMEDE","SPO.IT1660A_10_IR-GFC_2004-05-01_00:00:00","CO","Carbon monoxide (air)","P1Y","Annual mean / 1 calendar year","2021","0.402","mg/m3","71.35","3","Industrial","Suburban","17.2331","40.4944","10.0","","","","E2a/UTD AQ e-Reporting","02/02/2022 03:54:33",""
"Italy","NET.IT282A","RETE REGIONALE QUALITÀ ARIA AMBIENTE","IT2061A","URBINO - LOC.PIANSEVERO - Via Neruda","SPO.IT2061A_10_NDIR_2012-03-09_00:00:00","CO","Carbon monoxide (air)","P1Y","Annual mean / 1 calendar year","2021","0.404","mg/m3","77.12","3","Background","Suburban","12.6364","43.7306","380.0","","","","E2a/UTD AQ e-Reporting","02/02/2022 03:54:33",""
"Italy","NET.IT116A","MONITORAGGIO AMBIENTALE DELLA REGIONE CAMPANIA A CURA DELL'A.R.P.A.C.","IT1497A","NA01 OSSERVATORIO ASTRONOMICO","SPO.IT1497A_10_NDIR_1993-06-02_00:00:00","CO","Carbon monoxide (air)","P1Y","Annual mean / 1 calendar year","2021","0.405","mg/m3","87.45","3","Background","Urban","14.2545","40.8637","145.0","Napoli                                                                          ","IT003K1                                           ","3099849","E2a/UTD AQ e-Reporting","02/02/2022 03:54:33",""
"Italy","NET.IT116A","MONITORAGGIO AMBIENTALE DELLA REGIONE CAMPANIA A CURA DELL'A.R.P.A.C.","IT2218A","San Felice a Cancello Complesso scolastico","SPO.IT2218A_10_NDIR_2015-01-01_00:00:00","CO","Carbon monoxide (air)","P1Y","Annual mean / 1 calendar year","2021","0.405","mg/m3","81.48","3","Traffic","Suburban","14.4240","40.9905","39.0","","","","E2a/UTD AQ e-Reporting","02/02/2022 03:54:33",""
"Italy","NET.IT101A","PROVINCIA DI GENOVA","IT1026A","PIAZZA GARIBALDI - BUSALLA","SPO.IT1026A_10_NDIR_2017-01-01_00:00:00","CO","Carbon monoxide (air)","P1Y","Annual mean / 1 calendar year","2021","0.407","mg/m3","74.11","2","Traffic","Urban","8.9464","44.5728","380.0","","","","E2a/UTD AQ e-Reporting","02/02/2022 03:54:33",""
"Italy","NET.IT110A","Rete di Rilevamento della Qualità dell'Aria della Provincia di Varese","IT1588A","VARESE - VIA COPELLI","SPO.IT1588A_10_NDIR_2003-08-07_00:00:00","CO","Carbon monoxide (air)","P1Y","Annual mean / 1 calendar year","2021","0.413","mg/m3","96.37","3","Traffic","Urban","8.8203","45.8169","388.0","Varese                                                                          ","IT043C1                                           ","81899","E2a/UTD AQ e-Reporting","02/02/2022 03:54:33",""
"Italy","NET.IT112A","Regione Lazio","IT0953A","VILLA ADA","SPO.IT0953A_10_NDIR_1997-01-01_00:00:00","CO","Carbon monoxide (air)","P1Y","Annual mean / 1 calendar year","2021","0.414","mg/m3","90.05","3","Background","Urban","12.5069","41.9328","50.0","Roma                                                                            ","IT001C1                                           ","2611777","E2a/UTD AQ e-Reporting","02/02/2022 03:54:33",""
"Italy","NET.IT223A","REGIONE PUGLIA","IT1613A","taranto ADIGE","SPO.IT1613A_20_GC-FID_2009-05-01_00:00:00","C6H6","Benzene (air)","P1Y","Annual mean / 1 calendar year","2021","0.414","ug/m3","73.48","3","Traffic","Urban","17.2636","40.4944","10.0","Taranto                                                                         ","IT022C1                                           ","200990","E2a/UTD AQ e-Reporting","02/02/2022 03:54:33",""
"Italy","NET.IT116A","MONITORAGGIO AMBIENTALE DELLA REGIONE CAMPANIA A CURA DELL'A.R.P.A.C.","IT1504A","SA22 Ospedale via Vernieri","SPO.IT1504A_10_NDIR_1994-01-02_00:00:00","CO","Carbon monoxide (air)","P1Y","Annual mean / 1 calendar year","2021","0.415","mg/m3","85.95","3","Traffic","Urban","14.7697","40.6839","35.0","Salerno                                                                         ","IT032C1                                           ","136954","E2a/UTD AQ e-Reporting","02/02/2022 03:54:33",""
"Italy","NET.IT133A","MONITORING NETWORK OF REGIONE BASILICATA","IT1193A","MELFI","SPO.IT1193A_10_NDIR_1998-12-02_00:00:00","CO","Carbon monoxide (air)","P1Y","Annual mean / 1 calendar year","2021","0.415","mg/m3","76.96","3","Industrial","Suburban","15.6400","40.9841","561.0","","","","E2a/UTD AQ e-Reporting","02/02/2022 03:54:33",""
"Italy","NET.IT279A","RETE REGIONALE QUALITA' DELL'ARIA DELLA TOSCANA","IT1560A","LI-CARDUCCI","SPO.IT1560A_10_NDIR_2002-01-15_00:00:00","CO","Carbon monoxide (air)","P1Y","Annual mean / 1 calendar year","2021","0.418","mg/m3","89.50","3","Traffic","Urban","10.3297","43.5547","9.0","Livorno                                                                         ","IT504C1                                           ","157171","E2a/UTD AQ e-Reporting","02/02/2022 03:54:33",""
"Italy","NET.IT249A","RETE DI RILEVAMENTO DELLA QUALITA' DELL'ARIA DELLA CITTA' DI L'AQUILA","IT2160A","Arischia","SPO.IT2160A_20_GC-FID_2019-01-01_00:00:00","C6H6","Benzene (air)","P1Y","Annual mean / 1 calendar year","2021","0.419","ug/m3","82.47","3","Background","Rural","13.3508","42.4128","794.0","","","","E2a/UTD AQ e-Reporting","02/02/2022 03:54:33",""
"Italy","NET.IT107A","Rete di Rilevamento della Qualità dell'Aria della Provincia di Lecco","IT0776A","LECCO VIA AMENDOLA","SPO.IT0776A_20_GC-PID_2007-01-01_00:00:00","C6H6","Benzene (air)","P1Y","Annual mean / 1 calendar year","2021","0.420","ug/m3","95.27","3","Traffic","Urban","9.3958","45.8494","214.0","Lecco                                                                           ","IT060C1                                           ","48279","E2a/UTD AQ e-Reporting","02/02/2022 03:54:33",""
"Italy","NET.IT116A","MONITORAGGIO AMBIENTALE DELLA REGIONE CAMPANIA A CURA DELL'A.R.P.A.C.","IT1487A","CE52 SCUOLA DE AMICIS","SPO.IT1487A_10_NDIR_2015-09-01_00:00:00","CO","Carbon monoxide (air)","P1Y","Annual mean / 1 calendar year","2021","0.421","mg/m3","88.44","3","Traffic","Urban","14.3312","41.0780","68.0","Caserta                                                                         ","IT021C1                                           ","83228","E2a/UTD AQ e-Reporting","02/02/2022 03:54:33",""
"Italy","NET.IT274A","RETE DI RILEVAMENTO QA DELLA ZONA TRIESTINA","IT1090A","Via Carpineto","SPO.IT1090A_10_IR-GFC_2013-11-20_00:00:00","CO","Carbon monoxide (air)","P1Y","Annual mean / 1 calendar year","2021","0.422","mg/m3","0.07","3","Industrial","Suburban","13.7875","45.6231","50.0","Trieste                                                                         ","IT015C1                                           ","202165","E2a/UTD AQ e-Reporting","02/02/2022 03:54:33",""
"Italy","NET.IT282A","RETE REGIONALE QUALITÀ ARIA AMBIENTE","IT1842A","MONTEMONACO","SPO.IT1842A_20_GC-FID_2006-01-01_00:00:00","C6H6","Benzene (air)","P1Y","Annual mean / 1 calendar year","2021","0.424","ug/m3","65.75","3","Background","Rural","13.3367","42.9006","1000.0","","","","E2a/UTD AQ e-Reporting","02/02/2022 03:54:33",""
"Italy","NET.IT123A","PROVINCIA DELLA SPEZIA","IT2229A","LARGO PERTINI - SARZANA","SPO.IT2229A_10_NDIR_2016-01-01_00:00:00","CO","Carbon monoxide (air)","P1Y","Annual mean / 1 calendar year","2021","0.425","mg/m3","70.99","2","Traffic","Urban","9.9550","44.1109","25.0","","","","E2a/UTD AQ e-Reporting","02/02/2022 03:54:33",""
"Italy","NET.IT139A","PROVINCIA DI IMPERIA","IT1882A","PIAZZA BATTISTI - SANREMO","SPO.IT1882A_10_NDIR_2019-01-01_00:00:00","CO","Carbon monoxide (air)","P1Y","Annual mean / 1 calendar year","2021","0.428","mg/m3","70.38","2","Traffic","Urban","7.7722","43.8144","16.0","Sanremo                                                                         ","IT051C1                                           ","54978","E2a/UTD AQ e-Reporting","02/02/2022 03:54:33",""
"Italy","NET.IT112A","Regione Lazio","IT2013A","FROSINONE MAZZINI","SPO.IT2013A_10_IR-GFC_2010-09-05_00:00:00","CO","Carbon monoxide (air)","P1Y","Annual mean / 1 calendar year","2021","0.431","mg/m3","89.68","3","Background","Urban","13.3233","41.6389","242.0","","","","E2a/UTD AQ e-Reporting","02/02/2022 03:54:33",""
"Italy","NET.IT250A","RETE REGIONALE DI RILEVAMENTO DELLA QUALITÀ DELL'ARIA DI ARPA SICILIA","IT1997A","Milazzo - Termica","SPO.IT1997A_10_IR-GFC_2009-01-01_00:00:00","CO","Carbon monoxide (air)","P1Y","Annual mean / 1 calendar year","2021","0.432","mg/m3","72.16","3","Background","Suburban","15.2491","38.1906","28.0","","","","E2a/UTD AQ e-Reporting","02/02/2022 03:54:33",""
"Italy","NET.IT249A","RETE DI RILEVAMENTO DELLA QUALITA' DELL'ARIA DELLA CITTA' DI L'AQUILA","IT2161A","Castel di Sangro","SPO.IT2161A_10_NDIR_2017-12-15_00:00:00","CO","Carbon monoxide (air)","P1Y","Annual mean / 1 calendar year","2021","0.434","mg/m3","71.53","3","Background","Suburban","14.1036","41.7794","803.0","","","","E2a/UTD AQ e-Reporting","02/02/2022 03:54:33",""
"Italy","NET.IT116A","MONITORAGGIO AMBIENTALE DELLA REGIONE CAMPANIA A CURA DELL'A.R.P.A.C.","IT2277A","Parco Virgiliano","SPO.IT2277A_10_NDIR_2017-09-01_00:00:00","CO","Carbon monoxide (air)","P1Y","Annual mean / 1 calendar year","2021","0.434","mg/m3","80.67","3","Background","Suburban","14.1794","40.7989","","Napoli                                                                          ","IT003K1                                           ","3099849","E2a/UTD AQ e-Reporting","02/02/2022 03:54:33",""
"Italy","NET.IT250A","RETE REGIONALE DI RILEVAMENTO DELLA QUALITÀ DELL'ARIA DI ARPA SICILIA","IT1997A","Milazzo - Termica","SPO.IT1997A_20_GC-FID_2009-01-01_00:00:00","C6H6","Benzene (air)","P1Y","Annual mean / 1 calendar year","2021","0.435","ug/m3","36.79","3","Background","Suburban","15.2491","38.1906","28.0","","","","E2a/UTD AQ e-Reporting","02/02/2022 03:54:33",""
"Italy","NET.IT112A","Regione Lazio","IT0871A","FERENTINO","SPO.IT0871A_10_NDIR_1997-10-01_00:00:00","CO","Carbon monoxide (air)","P1Y","Annual mean / 1 calendar year","2021","0.436","mg/m3","89.90","3","Traffic","Urban","13.2503","41.6900","236.0","","","","E2a/UTD AQ e-Reporting","02/02/2022 03:54:33",""
"Italy","NET.IT107A","Rete di Rilevamento della Qualità dell'Aria della Provincia di Lecco","IT0777A","MERATE","SPO.IT0777A_10_NDIR_1991-12-01_00:00:00","CO","Carbon monoxide (air)","P1Y","Annual mean / 1 calendar year","2021","0.442","mg/m3","88.42","3","Traffic","Urban","9.4062","45.6980","292.0","","","","E2a/UTD AQ e-Reporting","02/02/2022 03:54:33",""
"Italy","NET.IT279A","RETE REGIONALE QUALITA' DELL'ARIA DELLA TOSCANA","IT0945A","PO-FERRUCCI","SPO.IT0945A_10_NDIR_1996-01-01_00:00:00","CO","Carbon monoxide (air)","P1Y","Annual mean / 1 calendar year","2021","0.443","mg/m3","90.57","3","Traffic","Urban","11.1053","43.8747","62.0","Prato                                                                           ","IT502C1                                           ","184463","E2a/UTD AQ e-Reporting","02/02/2022 03:54:33",""
"Italy","NET.IT110A","Rete di Rilevamento della Qualità dell'Aria della Provincia di Varese","IT1459A","BUSTO ARSIZIO - ACCAM","SPO.IT1459A_10_NDIR_1999-02-01_00:00:00","CO","Carbon monoxide (air)","P1Y","Annual mean / 1 calendar year","2021","0.443","mg/m3","96.32","3","Background","Suburban","8.8345","45.5829","206.0","Busto Arsizio                                                                   ","IT044C1                                           ","78860","E2a/UTD AQ e-Reporting","02/02/2022 03:54:33",""
"Italy","NET.IT082A","Rete di Rilevamento della Qualità dell'Aria della Provincia di Milano","IT1792A","CASSANO VIA MILANO","SPO.IT1792A_20_GC-PID_2006-02-17_00:00:00","C6H6","Benzene (air)","P1Y","Annual mean / 1 calendar year","2021","0.444","ug/m3","93.88","3","Traffic","Urban","9.5033","45.5281","133.0","Milano                                                                          ","IT002K1                                           ","3063361","E2a/UTD AQ e-Reporting","02/02/2022 03:54:33",""
"Italy","NET.IT280A","RETE MONITORAGGIO ARIA REGIONE SARDEGNA","IT1309A","CENS10","SPO.IT1309A_1_UV-FL_2006-01-01_00:00:00","SO2","Sulphur dioxide (air)","P1Y","Annual mean / 1 calendar year","2021","0.448","ug/m3","66.37","3","Traffic","Urban","9.5017","40.9283","15.0","","","","E2a/UTD AQ e-Reporting","02/02/2022 03:54:33",""
"Italy","NET.IT245A","EDISON","IT1766A","Firmo","SPO.IT1766A_10_IR-GFC_2004-01-01_00:00:00","CO","Carbon monoxide (air)","P1Y","Annual mean / 1 calendar year","2021","0.449","mg/m3","90.25","3","Industrial","Rural","16.1940","39.7138","325.0","","","","E2a/UTD AQ e-Reporting","02/02/2022 03:54:33",""
"Italy","NET.IT108A","Rete di Rilevamento della Qualità dell'Aria della Provincia di Como","IT0771A","COMO - VIALE CATTANEO","SPO.IT0771A_10_NDIR_1993-10-01_00:00:00","CO","Carbon monoxide (air)","P1Y","Annual mean / 1 calendar year","2021","0.450","mg/m3","95.30","3","Traffic","Urban","9.0836","45.8044","201.0","Como                                                                            ","IT040C1                                           ","85248","E2a/UTD AQ e-Reporting","02/02/2022 03:54:33",""
"Italy","NET.IT099A","Rete di Rilevamento della Qualità dell'Aria della Provincia di Mantova","IT1869A","MANTOVA - piazza GRAMSCI","SPO.IT1869A_10_NDIR_2004-06-11_00:00:00","CO","Carbon monoxide (air)","P1Y","Annual mean / 1 calendar year","2021","0.452","mg/m3","95.62","3","Traffic","Urban","10.7819","45.1644","19.0","","","","E2a/UTD AQ e-Reporting","02/02/2022 03:54:33",""
"Italy","NET.IT256A","RETE DI RILEVAMENTO QUALITA' DELL'ARIA DISTRETTI CHIETI-PESCARA","IT1977A","MONTESILVANO","SPO.IT1977A_20_GC-FID_2009-06-15_00:00:00","C6H6","Benzene (air)","P1Y","Annual mean / 1 calendar year","2021","0.455","ug/m3","89.89","3","Traffic","Urban","14.1483","42.5175","5.0","","","","E2a/UTD AQ e-Reporting","02/02/2022 03:54:33",""
"Italy","NET.IT274A","RETE DI RILEVAMENTO QA DELLA ZONA TRIESTINA","IT2261A","piazza Volontari Giuliani","SPO.IT2261A_10_IR-GFC_2016-05-20_00:00:00","CO","Carbon monoxide (air)","P1Y","Annual mean / 1 calendar year","2021","0.457","mg/m3","36.58","3","Traffic","Urban","13.7890","45.6544","","Trieste                                                                         ","IT015C1                                           ","202165","E2a/UTD AQ e-Reporting","02/02/2022 03:54:33",""
"Italy","NET.IT114A","Rete di Rilevamento della Qualità dell'Aria della Provincia di Sondrio","IT0906A","SONDRIO - VIA MAZZINI","SPO.IT0906A_10_NDIR_1993-11-01_00:00:00","CO","Carbon monoxide (air)","P1Y","Annual mean / 1 calendar year","2021","0.458","mg/m3","85.16","3","Traffic","Urban","9.8706","46.1672","307.0","","","","E2a/UTD AQ e-Reporting","02/02/2022 03:54:33",""
"Italy","NET.IT279A","RETE REGIONALE QUALITA' DELL'ARIA DELLA TOSCANA","IT1409A","PI-BORGHETTO","SPO.IT1409A_10_NDIR_2001-01-11_00:00:00","CO","Carbon monoxide (air)","P1Y","Annual mean / 1 calendar year","2021","0.459","mg/m3","89.94","3","Traffic","Urban","10.4106","43.7139","5.0","Pisa                                                                            ","IT041C1                                           ","83740","E2a/UTD AQ e-Reporting","02/02/2022 03:54:33",""
"Italy","NET.IT282A","RETE REGIONALE QUALITÀ ARIA AMBIENTE","IT1773A","Genga -Parco Gola della Rossa","SPO.IT1773A_10_NDIR_2006-10-01_00:00:00","CO","Carbon monoxide (air)","P1Y","Annual mean / 1 calendar year","2021","0.459","mg/m3","79.47","3","Background","Rural","12.9522","43.4681","550.0","","","","E2a/UTD AQ e-Reporting","02/02/2022 03:54:33",""
"Italy","NET.IT112A","Regione Lazio","IT2250A","Fiumaretta","SPO.IT2250A_10_IR-GFC_2016-05-06_00:00:00","CO","Carbon monoxide (air)","P1Y","Annual mean / 1 calendar year","2021","0.463","mg/m3","89.05","3","Traffic","Urban","11.7844","42.1022","3.0","","","","E2a/UTD AQ e-Reporting","02/02/2022 03:54:33",""
"Italy","NET.IT099A","Rete di Rilevamento della Qualità dell'Aria della Provincia di Mantova","IT1869A","MANTOVA - piazza GRAMSCI","SPO.IT1869A_20_GC-PID_2005-01-14_00:00:00","C6H6","Benzene (air)","P1Y","Annual mean / 1 calendar year","2021","0.463","ug/m3","95.78","3","Traffic","Urban","10.7819","45.1644","19.0","","","","E2a/UTD AQ e-Reporting","02/02/2022 03:54:33",""
"Italy","NET.IT101A","PROVINCIA DI GENOVA","IT1999A","MULTEDO VILLA CHIESA - GENOVA","SPO.IT1999A_20_GC-PID_2015-01-01_00:00:00","C6H6","Benzene (air)","P1Y","Annual mean / 1 calendar year","2021","0.464","ug/m3","71.69","2","Industrial","Urban","8.8303","44.4275","30.0","","","","E2a/UTD AQ e-Reporting","02/02/2022 03:54:33",""
"Italy","NET.IT106A","Provincia Regionale di Messina IX Dipartimento 1° U.D. Tutela Aria","IT0794A","a2a - Pace del mela","SPO.IT0794A_20_GC-FID_2018-01-01_00:00:00","C6H6","Benzene (air)","P1Y","Annual mean / 1 calendar year","2021","0.465","ug/m3","37.09","3","Background","Suburban","15.3015","38.1830","100.0","","","","E2a/UTD AQ e-Reporting","02/02/2022 03:54:33",""
"Italy","NET.IT133A","MONITORING NETWORK OF REGIONE BASILICATA","IT1583A","POTENZA - VIALE FIRENZE","SPO.IT1583A_10_NDIR_2003-05-28_00:00:00","CO","Carbon monoxide (air)","P1Y","Annual mean / 1 calendar year","2021","0.469","mg/m3","76.27","3","Traffic","Urban","15.7952","40.6492","742.0","Potenza                                                                         ","IT023C1                                           ","66649","E2a/UTD AQ e-Reporting","02/02/2022 03:54:33",""
"Italy","NET.IT282A","RETE REGIONALE QUALITÀ ARIA AMBIENTE","IT0459A","CHIARAVALLE2","SPO.IT0459A_10_NDIR_1997-09-02_00:00:00","CO","Carbon monoxide (air)","P1Y","Annual mean / 1 calendar year","2021","0.470","mg/m3","78.68","3","Background","Suburban","13.3419","43.5989","15.0","","","","E2a/UTD AQ e-Reporting","02/02/2022 03:54:33",""
"Italy","NET.IT127A","PROVINCIA DI SAVONA","IT2278A","VIA VIII MAGGIO - ALBISOLA SUPERIORE","SPO.IT2278A_10_NDIR_2017-01-01_00:00:00","CO","Carbon monoxide (air)","P1Y","Annual mean / 1 calendar year","2021","0.470","mg/m3","69.47","2","Traffic","Urban","8.5120","44.3329","5.0","","","","E2a/UTD AQ e-Reporting","02/02/2022 03:54:33",""
"Italy","NET.IT255A","RETE REGIONALE DI QUALITÀ DELL'ARIA DELLA REGIONE EMILIA-ROMAGNA","IT2156A","TIMAVO","SPO.IT2156A_10_NDIR_2014-01-01_00:00:00","CO","Carbon monoxide (air)","P1Y","Annual mean / 1 calendar year","2021","0.471","mg/m3","89.41","3","Traffic","Urban","10.6228","44.7003","59.0","Reggio nell'Emilia                                                              ","IT505C1                                           ","162351","E2a/UTD AQ e-Reporting","02/02/2022 03:54:33",""
"Italy","NET.IT116A","MONITORAGGIO AMBIENTALE DELLA REGIONE CAMPANIA A CURA DELL'A.R.P.A.C.","IT2226A","Pomigliano d'Arco Area ASI","SPO.IT2226A_10_NDIR_2015-05-01_00:00:00","CO","Carbon monoxide (air)","P1Y","Annual mean / 1 calendar year","2021","0.472","mg/m3","81.37","3","Industrial","Suburban","14.3895","40.9209","29.0","","","","E2a/UTD AQ e-Reporting","02/02/2022 03:54:33",""
"Italy","NET.IT280A","RETE MONITORAGGIO ARIA REGIONE SARDEGNA","IT2009A","CENS16","SPO.IT2009A_10_NDIR_2011-02-09_00:00:00","CO","Carbon monoxide (air)","P1Y","Annual mean / 1 calendar year","2021","0.475","mg/m3","65.90","3","Background","Urban","8.5761","40.7244","275.0","Sassari                                                                         ","IT026C1                                           ","123440","E2a/UTD AQ e-Reporting","02/02/2022 03:54:33",""
"Italy","NET.IT152A","EX MNS","IT1420A","ATESSA","SPO.IT1420A_20_GC-FID_2016-01-01_00:00:00","C6H6","Benzene (air)","P1Y","Annual mean / 1 calendar year","2021","0.476","ug/m3","90.57","3","Industrial","Suburban","14.4411","42.1417","61.0","","","","E2a/UTD AQ e-Reporting","02/02/2022 03:54:33",""
"Italy","NET.IT128A","Air Quality Monitoring Network of Palermo","IT1552A","PA - Di Blasi","SPO.IT1552A_10_IR-GFC_2002-03-28_00:00:00","CO","Carbon monoxide (air)","P1Y","Annual mean / 1 calendar year","2021","0.480","mg/m3","35.70","3","Traffic","Urban","13.3293","38.1217","55.0","Palermo                                                                         ","IT005C1                                           ","653586","E2a/UTD AQ e-Reporting","02/02/2022 03:54:33",""
"Italy","NET.IT101A","PROVINCIA DI GENOVA","IT1549A","CAMPORA - CAMPOMORONE","SPO.IT1549A_10_NDIR_2016-01-01_00:00:00","CO","Carbon monoxide (air)","P1Y","Annual mean / 1 calendar year","2021","0.480","mg/m3","88.21","2","Background","Suburban","8.8739","44.5186","120.0","","","","E2a/UTD AQ e-Reporting","02/02/2022 03:54:33",""
"Italy","NET.IT255A","RETE REGIONALE DI QUALITÀ DELL'ARIA DELLA REGIONE EMILIA-ROMAGNA","IT0895A","ZALAMELLA","SPO.IT0895A_10_NDIR_1993-06-02_00:00:00","CO","Carbon monoxide (air)","P1Y","Annual mean / 1 calendar year","2021","0.482","mg/m3","94.13","3","Traffic","Urban","12.1867","44.4286","4.0","Ravenna                                                                         ","IT506C1                                           ","153985","E2a/UTD AQ e-Reporting","02/02/2022 03:54:33",""
"Italy","NET.IT253A","ARPACAL","IT2112A","Rocca di Neto","SPO.IT2112A_10_IR-GFC_2014-10-14_00:00:00","CO","Carbon monoxide (air)","P1Y","Annual mean / 1 calendar year","2021","0.484","mg/m3","80.88","3","Background","Suburban","17.0103","39.1875","71.0","","","","E2a/UTD AQ e-Reporting","02/02/2022 03:54:33",""
"Italy","NET.IT250A","RETE REGIONALE DI RILEVAMENTO DELLA QUALITÀ DELL'ARIA DI ARPA SICILIA","IT2297A","PA - Unipa","SPO.IT2297A_20_GC-FID_2020-02-28_00:00:00","C6H6","Benzene (air)","P1Y","Annual mean / 1 calendar year","2021","0.486","ug/m3","36.42","3","Background","Urban","13.3465","38.1051","","Palermo                                                                         ","IT005C1                                           ","653586","E2a/UTD AQ e-Reporting","02/02/2022 03:54:33",""
"Italy","NET.IT116A","MONITORAGGIO AMBIENTALE DELLA REGIONE CAMPANIA A CURA DELL'A.R.P.A.C.","IT2277A","Parco Virgiliano","SPO.IT2277A_20_GC-PID_2017-09-01_00:00:00","C6H6","Benzene (air)","P1Y","Annual mean / 1 calendar year","2021","0.486","ug/m3","84.98","3","Background","Suburban","14.1794","40.7989","","Napoli                                                                          ","IT003K1                                           ","3099849","E2a/UTD AQ e-Reporting","02/02/2022 03:54:33",""
"Italy","NET.IT116A","MONITORAGGIO AMBIENTALE DELLA REGIONE CAMPANIA A CURA DELL'A.R.P.A.C.","IT2227A","Avellino Scuola Alighieri","SPO.IT2227A_10_NDIR_2015-05-01_00:00:00","CO","Carbon monoxide (air)","P1Y","Annual mean / 1 calendar year","2021","0.487","mg/m3","88.16","3","Traffic","Urban","14.7855","40.9188","357.0","Avellino                                                                        ","IT057C1                                           ","54265","E2a/UTD AQ e-Reporting","02/02/2022 03:54:33",""
"Italy","NET.IT085A","PROVINCIAL MONITORING NETWORK OF BOLZANO","IT0505A","RE1 Renon","SPO.IT0505A_38_chemi_1990-02-01_00:00:00","NO","Nitrogen monoxide (air)","P1Y","Annual mean / 1 calendar year","2021","0.488","ug/m3","77.42","3","Background","Rural","11.4333","46.5892","1770.0","","","","E2a/UTD AQ e-Reporting","02/02/2022 03:54:33",""
"Italy","NET.IT252A","RETE REGIONALE UMBRIA","IT2134A","Narni Scalo","SPO.IT2134A_10_NDIR_2013-02-05_00:00:00","CO","Carbon monoxide (air)","P1Y","Annual mean / 1 calendar year","2021","0.492","mg/m3","95.32","3","Background","Suburban","12.5219","42.5342","95.0","","","","E2a/UTD AQ e-Reporting","02/02/2022 03:54:33",""
"Italy","NET.IT107A","Rete di Rilevamento della Qualità dell'Aria della Provincia di Lecco","IT0776A","LECCO VIA AMENDOLA","SPO.IT0776A_10_NDIR_1991-11-01_00:00:00","CO","Carbon monoxide (air)","P1Y","Annual mean / 1 calendar year","2021","0.495","mg/m3","95.72","3","Traffic","Urban","9.3958","45.8494","214.0","Lecco                                                                           ","IT060C1                                           ","48279","E2a/UTD AQ e-Reporting","02/02/2022 03:54:33",""
"Italy","NET.IT137A","RETE DI RILEVAMENTO DELLA QUALITA' DELL'ARIA DELLA CITTA' DI PESCARA","IT1423A","PE - TEATRO D'ANNUNZIO","SPO.IT1423A_20_GC-FID_1998-07-17_00:00:00","C6H6","Benzene (air)","P1Y","Annual mean / 1 calendar year","2021","0.495","ug/m3","89.52","3","Background","Urban","14.2347","42.4564","4.0","Pescara                                                                         ","IT019C1                                           ","119285","E2a/UTD AQ e-Reporting","02/02/2022 03:54:33",""
"Italy","NET.IT248A","RETE DI RILEVAMENTO DELLA QUALITA' DELL'ARIA DELLA CITTA' DI TERAMO","IT1857A","TE - Porta Madonna","SPO.IT1857A_10_NDIR_2015-07-01_00:00:00","CO","Carbon monoxide (air)","P1Y","Annual mean / 1 calendar year","2021","0.496","mg/m3","88.03","3","Traffic","Urban","13.7094","42.6572","257.0","","","","E2a/UTD AQ e-Reporting","02/02/2022 03:54:33",""
"Italy","NET.IT252A","RETE REGIONALE UMBRIA","IT1011A","CARRARA","SPO.IT1011A_10_NDIR_1996-07-01_00:00:00","CO","Carbon monoxide (air)","P1Y","Annual mean / 1 calendar year","2021","0.497","mg/m3","93.82","3","Traffic","Urban","12.6508","42.5600","128.0","Terni                                                                           ","IT515C1                                           ","109930","E2a/UTD AQ e-Reporting","02/02/2022 03:54:33",""
"Italy","NET.IT127A","PROVINCIA DI SAVONA","IT1144A","MERCATO GENERALE - QUILIANO","SPO.IT1144A_20_GC-PID_2014-01-01_00:00:00","C6H6","Benzene (air)","P1Y","Annual mean / 1 calendar year","2021","0.498","ug/m3","67.44","2","Industrial","Suburban","8.4114","44.2939","16.0","","","","E2a/UTD AQ e-Reporting","02/02/2022 03:54:33",""
"Italy","NET.IT101A","PROVINCIA DI GENOVA","IT1549A","CAMPORA - CAMPOMORONE","SPO.IT1549A_20_GC-PID_2008-01-01_00:00:00","C6H6","Benzene (air)","P1Y","Annual mean / 1 calendar year","2021","0.498","ug/m3","85.80","2","Background","Suburban","8.8739","44.5186","120.0","","","","E2a/UTD AQ e-Reporting","02/02/2022 03:54:33",""
"Italy","NET.IT094A","Provincial monitoring network of Siracusa","IT0611A","Melilli","SPO.IT0611A_20_GC-FID_1992-03-24_00:00:00","C6H6","Benzene (air)","P1Y","Annual mean / 1 calendar year","2021","0.499","ug/m3","29.65","3","Background","Urban","15.1288","37.1824","300.0","","","","E2a/UTD AQ e-Reporting","02/02/2022 03:54:33",""
"Italy","NET.IT256A","RETE DI RILEVAMENTO QUALITA' DELL'ARIA DISTRETTI CHIETI-PESCARA","IT2167A","Francavilla","SPO.IT2167A_20_GC-FID_2017-01-01_00:00:00","C6H6","Benzene (air)","P1Y","Annual mean / 1 calendar year","2021","0.499","ug/m3","86.38","3","Background","Suburban","14.2792","42.4214","6.0","","","","E2a/UTD AQ e-Reporting","02/02/2022 03:54:33",""
"Italy","NET.IT116A","MONITORAGGIO AMBIENTALE DELLA REGIONE CAMPANIA A CURA DELL'A.R.P.A.C.","IT2271A","Aversa scuola Cirillo","SPO.IT2271A_10_NDIR_2016-04-23_00:00:00","CO","Carbon monoxide (air)","P1Y","Annual mean / 1 calendar year","2021","0.499","mg/m3","87.87","3","Traffic","Urban","14.2114","40.9755","38.0","Napoli                                                                          ","IT003K1                                           ","3099849","E2a/UTD AQ e-Reporting","02/02/2022 03:54:33",""
"Italy","NET.IT224A","PIEMONTE - SISTEMA REGIONALE DI RILEVAMENTO DELLA QUALITA' DELL'ARIA","IT1847A","Oulx - Roma","SPO.IT1847A_10_NDIR_2006-03-22_00:00:00","CO","Carbon monoxide (air)","P1Y","Annual mean / 1 calendar year","2021","0.499","mg/m3","91.07","3","Traffic","Suburban","6.8359","45.0348","1077.0","","","","E2a/UTD AQ e-Reporting","02/02/2022 03:54:33",""
"Italy","NET.IT094A","Provincial monitoring network of Siracusa","IT0618A","Augusta","SPO.IT0618A_1_UV-FL_1983-05-02_00:00:00","SO2","Sulphur dioxide (air)","P1Y","Annual mean / 1 calendar year","2021","0.503","ug/m3","65.10","3","Background","Urban","15.2205","37.2184","15.0","","","","E2a/UTD AQ e-Reporting","02/02/2022 03:54:33",""
"Italy","NET.IT280A","RETE MONITORAGGIO ARIA REGIONE SARDEGNA","IT1375A","CENNM1","SPO.IT1375A_1_UV-FL_2000-12-02_00:00:00","SO2","Sulphur dioxide (air)","P1Y","Annual mean / 1 calendar year","2021","0.503","ug/m3","67.24","3","Background","Rural","9.0153","39.4436","124.0","","","","E2a/UTD AQ e-Reporting","02/02/2022 03:54:33",""
"Italy","NET.IT272A","SORGENIA","IT2145A","EN03 - VIGILI URBANI","SPO.IT2145A_10_IR-GFC_2010-01-01_00:00:00","CO","Carbon monoxide (air)","P1Y","Annual mean / 1 calendar year","2021","0.503","mg/m3","85.81","3","Industrial","Urban","16.7817","41.0872","55.0","","","","E2a/UTD AQ e-Reporting","02/02/2022 03:54:33",""
"Italy","NET.IT224A","PIEMONTE - SISTEMA REGIONALE DI RILEVAMENTO DELLA QUALITA' DELL'ARIA","IT2116A","Cigliano-Autostrada","SPO.IT2116A_10_NDIR_2013-05-24_00:00:00","CO","Carbon monoxide (air)","P1Y","Annual mean / 1 calendar year","2021","0.504","mg/m3","94.54","3","Traffic","Rural","8.0434","45.2948","211.0","","","","E2a/UTD AQ e-Reporting","02/02/2022 03:54:33",""
"Italy","NET.IT253A","ARPACAL","IT2031A","Gioacchino da Fiore (via)","SPO.IT2031A_10_IR-GFC_2009-12-14_00:00:00","CO","Carbon monoxide (air)","P1Y","Annual mean / 1 calendar year","2021","0.504","mg/m3","88.47","3","Background","Urban","17.1142","39.0681","37.0","","","","E2a/UTD AQ e-Reporting","02/02/2022 03:54:33",""
"Italy","NET.IT116A","MONITORAGGIO AMBIENTALE DELLA REGIONE CAMPANIA A CURA DELL'A.R.P.A.C.","IT2268A","Battipaglia parco fiume","SPO.IT2268A_20_GC-PID_2016-01-01_00:00:00","C6H6","Benzene (air)","P1Y","Annual mean / 1 calendar year","2021","0.505","ug/m3","87.28","3","Background","Urban","14.9758","40.6111","70.0","","","","E2a/UTD AQ e-Reporting","02/02/2022 03:54:33",""
"Italy","NET.IT223A","REGIONE PUGLIA","IT1611A","taranto MACHIAVELLI","SPO.IT1611A_20_GC-FID_2004-05-01_00:00:00","C6H6","Benzene (air)","P1Y","Annual mean / 1 calendar year","2021","0.511","ug/m3","72.74","3","Industrial","Suburban","17.2258","40.4886","10.0","","","","E2a/UTD AQ e-Reporting","02/02/2022 03:54:33",""
"Italy","NET.IT280A","RETE MONITORAGGIO ARIA REGIONE SARDEGNA","IT1243A","CENS12","SPO.IT1243A_1_UV-FL_2006-01-01_00:00:00","SO2","Sulphur dioxide (air)","P1Y","Annual mean / 1 calendar year","2021","0.511","ug/m3","66.66","3","Traffic","Suburban","8.5514","40.7103","192.0","Sassari                                                                         ","IT026C1                                           ","123440","E2a/UTD AQ e-Reporting","02/02/2022 03:54:33",""
"Italy","NET.IT091A","Rete di Rilevamento della Qualità dell'Aria della Provincia di Bergamo","IT0778A","TREVIGLIO","SPO.IT0778A_10_NDIR_1991-06-01_00:00:00","CO","Carbon monoxide (air)","P1Y","Annual mean / 1 calendar year","2021","0.513","mg/m3","95.54","3","Traffic","Urban","9.5914","45.5183","125.0","","","","E2a/UTD AQ e-Reporting","02/02/2022 03:54:33",""
"Italy","NET.IT250A","RETE REGIONALE DI RILEVAMENTO DELLA QUALITÀ DELL'ARIA DI ARPA SICILIA","IT1718A","CT - Viale Vittorio Veneto","SPO.IT1718A_10_NDIR_1993-09-01_00:00:00","CO","Carbon monoxide (air)","P1Y","Annual mean / 1 calendar year","2021","0.517","mg/m3","74.30","3","Traffic","Urban","15.0972","37.5158","38.0","Catania                                                                         ","IT010C1                                           ","290083","E2a/UTD AQ e-Reporting","02/02/2022 03:54:33",""
"Italy","NET.IT127A","PROVINCIA DI SAVONA","IT2286A","VIA DE LITTA - VADO LIGURE","SPO.IT2286A_20_GC-PID_2018-01-01_00:00:00","C6H6","Benzene (air)","P1Y","Annual mean / 1 calendar year","2021","0.520","ug/m3","66.66","2","Industrial","Suburban","8.4457","44.2618","","","","","E2a/UTD AQ e-Reporting","02/02/2022 03:54:33",""
"Italy","NET.IT101A","PROVINCIA DI GENOVA","IT1751A","SARISSOLA - BUSALLA","SPO.IT1751A_20_GC-PID_2006-01-01_00:00:00","C6H6","Benzene (air)","P1Y","Annual mean / 1 calendar year","2021","0.522","ug/m3","68.70","2","Industrial","Suburban","8.9511","44.5739","400.0","","","","E2a/UTD AQ e-Reporting","02/02/2022 03:54:33",""
"Italy","NET.IT116A","MONITORAGGIO AMBIENTALE DELLA REGIONE CAMPANIA A CURA DELL'A.R.P.A.C.","IT2213A","Cava de' Tirreni Stadio","SPO.IT2213A_10_NDIR_2015-01-01_00:00:00","CO","Carbon monoxide (air)","P1Y","Annual mean / 1 calendar year","2021","0.525","mg/m3","85.83","3","Background","Suburban","14.7024","40.7110","191.0","","","","E2a/UTD AQ e-Reporting","02/02/2022 03:54:33",""
"Italy","NET.IT112A","Regione Lazio","IT0991A","ALATRI","SPO.IT0991A_10_IR-GFC_2010-05-28_00:00:00","CO","Carbon monoxide (air)","P1Y","Annual mean / 1 calendar year","2021","0.527","mg/m3","89.33","3","Background","Urban","13.3383","41.7300","440.0","","","","E2a/UTD AQ e-Reporting","02/02/2022 03:54:33",""
"Italy","NET.IT101A","PROVINCIA DI GENOVA","IT2039A","CAMPO SPORTIVO MACERA - RAPALLO","SPO.IT2039A_10_NDIR_2010-01-01_00:00:00","CO","Carbon monoxide (air)","P1Y","Annual mean / 1 calendar year","2021","0.530","mg/m3","72.43","2","Traffic","Urban","9.2226","44.3517","2.8","","","","E2a/UTD AQ e-Reporting","02/02/2022 03:54:33",""
"Italy","NET.IT114A","Rete di Rilevamento della Qualità dell'Aria della Provincia di Sondrio","IT0906A","SONDRIO - VIA MAZZINI","SPO.IT0906A_20_GC-PID_2006-09-18_00:00:00","C6H6","Benzene (air)","P1Y","Annual mean / 1 calendar year","2021","0.531","ug/m3","96.06","3","Traffic","Urban","9.8706","46.1672","307.0","","","","E2a/UTD AQ e-Reporting","02/02/2022 03:54:33",""
"Italy","NET.IT158A","Rete di Rilevamento della Qualità dell'Aria della Provincia di Lodi","IT1286A","LODI Vignati","SPO.IT1286A_20_GC-PID_2005-04-22_00:00:00","C6H6","Benzene (air)","P1Y","Annual mean / 1 calendar year","2021","0.531","ug/m3","95.17","3","Traffic","Urban","9.4856","45.3053","80.0","","","","E2a/UTD AQ e-Reporting","02/02/2022 03:54:33",""
"Italy","NET.IT224A","PIEMONTE - SISTEMA REGIONALE DI RILEVAMENTO DELLA QUALITA' DELL'ARIA","IT1676A","Novara - Roma","SPO.IT1676A_10_NDIR_2008-07-01_00:00:00","CO","Carbon monoxide (air)","P1Y","Annual mean / 1 calendar year","2021","0.535","mg/m3","94.82","3","Traffic","Urban","8.6197","45.4403","157.0","Novara                                                                          ","IT516C1                                           ","101983","E2a/UTD AQ e-Reporting","02/02/2022 03:54:33",""
"Italy","NET.IT116A","MONITORAGGIO AMBIENTALE DELLA REGIONE CAMPANIA A CURA DELL'A.R.P.A.C.","IT2218A","San Felice a Cancello Complesso scolastico","SPO.IT2218A_20_GC-PID_2015-01-01_00:00:00","C6H6","Benzene (air)","P1Y","Annual mean / 1 calendar year","2021","0.535","ug/m3","84.82","3","Traffic","Suburban","14.4240","40.9905","39.0","","","","E2a/UTD AQ e-Reporting","02/02/2022 03:54:33",""
"Italy","NET.IT101A","PROVINCIA DI GENOVA","IT0858A","QUARTO - GENOVA","SPO.IT0858A_20_GC-PID_1998-05-05_00:00:00","C6H6","Benzene (air)","P1Y","Annual mean / 1 calendar year","2021","0.538","ug/m3","67.28","2","Background","Urban","8.9922","44.3964","85.0","Genova                                                                          ","IT006C1                                           ","588904","E2a/UTD AQ e-Reporting","02/02/2022 03:54:33",""
"Italy","NET.IT253A","ARPACAL","IT1940A","Locri","SPO.IT1940A_10_IR-GFC_2009-03-01_00:00:00","CO","Carbon monoxide (air)","P1Y","Annual mean / 1 calendar year","2021","0.542","mg/m3","90.24","3","Background","Urban","15.0048","35.2891","11.0","","","","E2a/UTD AQ e-Reporting","02/02/2022 03:54:33",""
"Italy","NET.IT116A","MONITORAGGIO AMBIENTALE DELLA REGIONE CAMPANIA A CURA DELL'A.R.P.A.C.","IT2273A","Polla Area tritovagliatore","SPO.IT2273A_20_GC-PID_2016-11-18_00:00:00","C6H6","Benzene (air)","P1Y","Annual mean / 1 calendar year","2021","0.542","ug/m3","87.76","3","Industrial","Suburban","15.5283","40.4870","445.0","","","","E2a/UTD AQ e-Reporting","02/02/2022 03:54:33",""
"Italy","NET.IT109A","Rete di Rilevamento della Qualità dell'Aria della Provincia di Cremona","IT0839A","CREMA","SPO.IT0839A_10_NDIR_1996-04-01_00:00:00","CO","Carbon monoxide (air)","P1Y","Annual mean / 1 calendar year","2021","0.543","mg/m3","96.27","3","Background","Suburban","9.7050","45.3672","79.0","","","","E2a/UTD AQ e-Reporting","02/02/2022 03:54:33",""
"Italy","NET.IT270A","ENEL_EDIPOWER","IT2139A","TERMINAL PASSEGGERI","SPO.IT2139A_1_UV-FL_2014-01-01_00:00:00","SO2","Sulphur dioxide (air)","P1Y","Annual mean / 1 calendar year","2021","0.545","ug/m3","70.21","3","Industrial","Suburban","17.9606","40.6458","20.0","","","","E2a/UTD AQ e-Reporting","02/02/2022 03:54:33",""
"Italy","NET.IT250A","RETE REGIONALE DI RILEVAMENTO DELLA QUALITÀ DELL'ARIA DI ARPA SICILIA","IT0813A","Gela - Via Venezia","SPO.IT0813A_20_GC-FID_2015-01-01_00:00:00","C6H6","Benzene (air)","P1Y","Annual mean / 1 calendar year","2021","0.547","ug/m3","36.04","3","Traffic","Urban","14.2590","37.0687","15.0","","","","E2a/UTD AQ e-Reporting","02/02/2022 03:54:33",""
"Italy","NET.IT256A","RETE DI RILEVAMENTO QUALITA' DELL'ARIA DISTRETTI CHIETI-PESCARA","IT2165A","Villa Caldari","SPO.IT2165A_20_GC-FID_2017-01-01_00:00:00","C6H6","Benzene (air)","P1Y","Annual mean / 1 calendar year","2021","0.553","ug/m3","87.39","3","Background","Suburban","14.3558","42.2931","201.0","","","","E2a/UTD AQ e-Reporting","02/02/2022 03:54:33",""
"Italy","NET.IT276A","RETE DI RILEVAMENTO QA DELLA ZONA DI PIANURA","IT0966A","V.Cairoli","SPO.IT0966A_20_GC-PID_2013-11-13_00:00:00","C6H6","Benzene (air)","P1Y","Annual mean / 1 calendar year","2021","0.553","ug/m3","13.13","3","Background","Urban","13.2406","46.0661","100.0","Udine                                                                           ","IT035C1                                           ","101781","E2a/UTD AQ e-Reporting","02/02/2022 03:54:33",""
"Italy","NET.IT112A","Regione Lazio","IT2012A","MALAGROTTA","SPO.IT2012A_20_GC-PID_2010-02-24_00:00:00","C6H6","Benzene (air)","P1Y","Annual mean / 1 calendar year","2021","0.553","ug/m3","83.30","3","Background","Suburban","12.3450","41.8756","62.0","Roma                                                                            ","IT001C1                                           ","2611777","E2a/UTD AQ e-Reporting","02/02/2022 03:54:33",""
"Italy","NET.IT224A","PIEMONTE - SISTEMA REGIONALE DI RILEVAMENTO DELLA QUALITA' DELL'ARIA","IT2121A","Borgomanero - Molli","SPO.IT2121A_10_NDIR_2012-06-28_00:00:00","CO","Carbon monoxide (air)","P1Y","Annual mean / 1 calendar year","2021","0.556","mg/m3","94.92","3","Traffic","Urban","8.4584","45.6894","301.0","","","","E2a/UTD AQ e-Reporting","02/02/2022 03:54:33",""
"Italy","NET.IT082A","Rete di Rilevamento della Qualità dell'Aria della Provincia di Milano","IT0706A","LIMITO","SPO.IT0706A_10_NDIR_1994-12-01_00:00:00","CO","Carbon monoxide (air)","P1Y","Annual mean / 1 calendar year","2021","0.558","mg/m3","91.23","3","Background","Urban","9.3275","45.4828","123.0","Milano                                                                          ","IT002K1                                           ","3063361","E2a/UTD AQ e-Reporting","02/02/2022 03:54:33",""
"Italy","NET.IT099A","Rete di Rilevamento della Qualità dell'Aria della Provincia di Mantova","IT1865A","SCHIVENOGLIA","SPO.IT1865A_20_GC-PID_2006-11-29_00:00:00","C6H6","Benzene (air)","P1Y","Annual mean / 1 calendar year","2021","0.558","ug/m3","93.95","3","Background","Rural","11.0708","44.9969","16.0","","","","E2a/UTD AQ e-Reporting","02/02/2022 03:54:33",""
"Italy","NET.IT112A","Regione Lazio","IT0885A","CIVITAVECCHIA","SPO.IT0885A_10_NDIR_1993-01-01_00:00:00","CO","Carbon monoxide (air)","P1Y","Annual mean / 1 calendar year","2021","0.561","mg/m3","90.22","3","Background","Urban","11.8025","42.0917","26.0","","","","E2a/UTD AQ e-Reporting","02/02/2022 03:54:33",""
"Italy","NET.IT282A","RETE REGIONALE QUALITÀ ARIA AMBIENTE","IT2177A","San Benedetto del Tronto","SPO.IT2177A_10_NDIR_2013-05-01_00:00:00","CO","Carbon monoxide (air)","P1Y","Annual mean / 1 calendar year","2021","0.565","mg/m3","82.29","3","Traffic","Urban","13.8794","42.9444","7.0","","","","E2a/UTD AQ e-Reporting","02/02/2022 03:54:33",""
"Italy","NET.IT252A","RETE REGIONALE UMBRIA","IT1900A","PORTA ROMANA","SPO.IT1900A_10_NDIR_2008-01-01_00:00:00","CO","Carbon monoxide (air)","P1Y","Annual mean / 1 calendar year","2021","0.565","mg/m3","30.06","3","Traffic","Urban","12.7078","42.9517","234.0","","","","E2a/UTD AQ e-Reporting","02/02/2022 03:54:33",""
"Italy","NET.IT158A","Rete di Rilevamento della Qualità dell'Aria della Provincia di Lodi","IT1286A","LODI Vignati","SPO.IT1286A_10_NDIR_1994-02-01_00:00:00","CO","Carbon monoxide (air)","P1Y","Annual mean / 1 calendar year","2021","0.567","mg/m3","94.46","3","Traffic","Urban","9.4856","45.3053","80.0","","","","E2a/UTD AQ e-Reporting","02/02/2022 03:54:33",""
"Italy","NET.IT272A","SORGENIA","IT2144A","EN02 - ass. ecologia","SPO.IT2144A_10_IR-GFC_2010-01-01_00:00:00","CO","Carbon monoxide (air)","P1Y","Annual mean / 1 calendar year","2021","0.574","mg/m3","82.74","3","Industrial","Suburban","16.7661","41.1078","40.0","","","","E2a/UTD AQ e-Reporting","02/02/2022 03:54:33",""
"Italy","NET.IT253A","ARPACAL","IT1938A","Città dei ragazzi","SPO.IT1938A_10_IR-GFC_2009-03-01_00:00:00","CO","Carbon monoxide (air)","P1Y","Annual mean / 1 calendar year","2021","0.579","mg/m3","87.05","3","Background","Urban","16.2452","39.3134","230.0","Cosenza                                                                         ","IT048C1                                           ","69040","E2a/UTD AQ e-Reporting","02/02/2022 03:54:33",""
"Italy","NET.IT101A","PROVINCIA DI GENOVA","IT0854A","CORSO FIRENZE - GENOVA","SPO.IT0854A_10_NDIR_2016-01-01_00:00:00","CO","Carbon monoxide (air)","P1Y","Annual mean / 1 calendar year","2021","0.583","mg/m3","66.88","2","Background","Urban","8.9274","44.4181","105.0","Genova                                                                          ","IT006C1                                           ","588904","E2a/UTD AQ e-Reporting","02/02/2022 03:54:33",""
"Italy","NET.IT082A","Rete di Rilevamento della Qualità dell'Aria della Provincia di Milano","IT0480A","SESTO S.GIOVANNI","SPO.IT0480A_10_NDIR_1989-10-01_00:00:00","CO","Carbon monoxide (air)","P1Y","Annual mean / 1 calendar year","2021","0.586","mg/m3","96.23","3","Traffic","Urban","9.2364","45.5339","137.0","Milano                                                                          ","IT002K1                                           ","3063361","E2a/UTD AQ e-Reporting","02/02/2022 03:54:33",""
"Italy","NET.IT137A","RETE DI RILEVAMENTO DELLA QUALITA' DELL'ARIA DELLA CITTA' DI PESCARA","IT1264A","PE - VIA FIRENZE","SPO.IT1264A_10_NDIR_2014-01-01_00:00:00","CO","Carbon monoxide (air)","P1Y","Annual mean / 1 calendar year","2021","0.588","mg/m3","78.12","3","Traffic","Urban","14.2131","42.4664","9.0","Pescara                                                                         ","IT019C1                                           ","119285","E2a/UTD AQ e-Reporting","02/02/2022 03:54:33",""
"Italy","NET.IT082A","Rete di Rilevamento della Qualità dell'Aria della Provincia di Milano","IT1792A","CASSANO VIA MILANO","SPO.IT1792A_10_NDIR_2006-04-22_00:00:00","CO","Carbon monoxide (air)","P1Y","Annual mean / 1 calendar year","2021","0.590","mg/m3","85.18","3","Traffic","Urban","9.5033","45.5281","133.0","Milano                                                                          ","IT002K1                                           ","3063361","E2a/UTD AQ e-Reporting","02/02/2022 03:54:33",""
"Italy","NET.IT116A","MONITORAGGIO AMBIENTALE DELLA REGIONE CAMPANIA A CURA DELL'A.R.P.A.C.","IT1493A","NA09 I.T.I.S. ARGINE","SPO.IT1493A_10_NDIR_2015-05-20_15:00:00","CO","Carbon monoxide (air)","P1Y","Annual mean / 1 calendar year","2021","0.592","mg/m3","87.19","3","Traffic","Suburban","14.3411","40.8643","33.0","Napoli                                                                          ","IT003K1                                           ","3099849","E2a/UTD AQ e-Reporting","02/02/2022 03:54:33",""
"Italy","NET.IT101A","PROVINCIA DI GENOVA","IT1850A","VIA PASTORINO - BOLZANETO - GENOVA","SPO.IT1850A_10_NDIR_2009-01-01_00:00:00","CO","Carbon monoxide (air)","P1Y","Annual mean / 1 calendar year","2021","0.593","mg/m3","71.46","2","Traffic","Urban","8.9014","44.4628","60.0","Genova                                                                          ","IT006C1                                           ","588904","E2a/UTD AQ e-Reporting","02/02/2022 03:54:33",""
"Italy","NET.IT116A","MONITORAGGIO AMBIENTALE DELLA REGIONE CAMPANIA A CURA DELL'A.R.P.A.C.","IT2219A","Acerra scuola Caporale","SPO.IT2219A_10_NDIR_2015-01-01_00:00:00","CO","Carbon monoxide (air)","P1Y","Annual mean / 1 calendar year","2021","0.594","mg/m3","84.98","3","Traffic","Urban","14.3698","40.9411","27.0","Napoli                                                                          ","IT003K1                                           ","3099849","E2a/UTD AQ e-Reporting","02/02/2022 03:54:33",""
"Italy","NET.IT274A","RETE DI RILEVAMENTO QA DELLA ZONA TRIESTINA","IT2280A","p.le Rosmini","SPO.IT2280A_20_GC-PID_2017-05-23_00:00:00","C6H6","Benzene (air)","P1Y","Annual mean / 1 calendar year","2021","0.596","ug/m3","1.54","3","Background","Urban","13.7661","45.6405","","Trieste                                                                         ","IT015C1                                           ","202165","E2a/UTD AQ e-Reporting","02/02/2022 03:54:33",""
"Italy","NET.IT100A","Rete di Rilevamento della Qualità dell'Aria della Provincia di Pavia","IT1104A","PAVIA - P.ZZA MINERVA","SPO.IT1104A_10_NDIR_1997-02-11_00:00:00","CO","Carbon monoxide (air)","P1Y","Annual mean / 1 calendar year","2021","0.598","mg/m3","94.41","3","Traffic","Urban","9.1469","45.1856","77.0","Pavia                                                                           ","IT046C1                                           ","68114","E2a/UTD AQ e-Reporting","02/02/2022 03:54:33",""
"Italy","NET.IT256A","RETE DI RILEVAMENTO QUALITA' DELL'ARIA DISTRETTI CHIETI-PESCARA","IT2166A","Scuola Antonelli","SPO.IT2166A_20_GC-FID_2017-01-01_00:00:00","C6H6","Benzene (air)","P1Y","Annual mean / 1 calendar year","2021","0.598","ug/m3","84.94","3","Background","Urban","14.1378","42.3461","50.0","","","","E2a/UTD AQ e-Reporting","02/02/2022 03:54:33",""
"Italy","NET.IT253A","ARPACAL","IT2089A","Parco della biodiversità mediterranea","SPO.IT2089A_10_IR-GFC_2014-10-14_00:00:00","CO","Carbon monoxide (air)","P1Y","Annual mean / 1 calendar year","2021","0.599","mg/m3","81.12","3","Background","Urban","16.5793","38.9183","370.0","Catanzaro                                                                       ","IT024C1                                           ","89710","E2a/UTD AQ e-Reporting","02/02/2022 03:54:33",""
"Italy","NET.IT224A","PIEMONTE - SISTEMA REGIONALE DI RILEVAMENTO DELLA QUALITA' DELL'ARIA","IT1532A","Borgosesia - Tonella","SPO.IT1532A_5029_GC-MS_2004-01-01_00:00:00","BaP in PM10","Benzo(a)pyrene in PM10 (aerosol)","P1Y","Annual mean / 1 calendar year","2021","0.600","ng/m3","8.50","2","Background","Urban","8.2835","45.7132","344.0","","","","E2a/UTD AQ e-Reporting","02/02/2022 03:54:33",""
"Italy","NET.IT255A","RETE REGIONALE DI QUALITÀ DELL'ARIA DELLA REGIONE EMILIA-ROMAGNA","IT1923A","GIORDANI FARNESE","SPO.IT1923A_10_NDIR_2006-02-01_00:00:00","CO","Carbon monoxide (air)","P1Y","Annual mean / 1 calendar year","2021","0.602","mg/m3","86.30","3","Traffic","Urban","9.6933","45.0489","61.0","Piacenza                                                                        ","IT033C1                                           ","100038","E2a/UTD AQ e-Reporting","02/02/2022 03:54:33",""
"Italy","NET.IT245A","EDISON","IT2078A","Pietropaolo","SPO.IT2078A_10_IR-GFC_2007-09-10_00:00:00","CO","Carbon monoxide (air)","P1Y","Annual mean / 1 calendar year","2021","0.609","mg/m3","93.26","3","Industrial","Rural","16.6692","38.8705","82.0","","","","E2a/UTD AQ e-Reporting","02/02/2022 03:54:33",""
"Italy","NET.IT116A","MONITORAGGIO AMBIENTALE DELLA REGIONE CAMPANIA A CURA DELL'A.R.P.A.C.","IT1487A","CE52 SCUOLA DE AMICIS","SPO.IT1487A_20_GC-PID_2015-07-30_13:00:00","C6H6","Benzene (air)","P1Y","Annual mean / 1 calendar year","2021","0.612","ug/m3","92.23","3","Traffic","Urban","14.3312","41.0780","68.0","Caserta                                                                         ","IT021C1                                           ","83228","E2a/UTD AQ e-Reporting","02/02/2022 03:54:33",""
"Italy","NET.IT112A","Regione Lazio","IT2252A","Campo dell'Oro","SPO.IT2252A_1_UV-FL_2016-05-18_00:00:00","SO2","Sulphur dioxide (air)","P1Y","Annual mean / 1 calendar year","2021","0.613","ug/m3","87.24","3","Background","Urban","11.8093","42.0818","19.0","","","","E2a/UTD AQ e-Reporting","02/02/2022 03:54:33",""
"Italy","NET.IT224A","PIEMONTE - SISTEMA REGIONALE DI RILEVAMENTO DELLA QUALITA' DELL'ARIA","IT1510A","Verbania - Gabardi","SPO.IT1510A_20_GC-PID_2012-05-18_00:00:00","C6H6","Benzene (air)","P1Y","Annual mean / 1 calendar year","2021","0.613","ug/m3","90.51","3","Background","Urban","8.5655","45.9303","203.0","","","","E2a/UTD AQ e-Reporting","02/02/2022 03:54:33",""
"Italy","NET.IT112A","Regione Lazio","IT1200A","FROSINONE SCALO","SPO.IT1200A_10_NDIR_1998-12-29_00:00:00","CO","Carbon monoxide (air)","P1Y","Annual mean / 1 calendar year","2021","0.616","mg/m3","88.14","3","Traffic","Urban","13.3308","41.6200","162.0","","","","E2a/UTD AQ e-Reporting","02/02/2022 03:54:33",""
"Italy","NET.IT091A","Rete di Rilevamento della Qualità dell'Aria della Provincia di Bergamo","IT0997A","BERGAMO - VIA GARIBALDI","SPO.IT0997A_10_NDIR_1994-06-01_00:00:00","CO","Carbon monoxide (air)","P1Y","Annual mean / 1 calendar year","2021","0.617","mg/m3","95.57","3","Traffic","Urban","9.6617","45.6957","249.0","Bergamo                                                                         ","IT511C1                                           ","118048","E2a/UTD AQ e-Reporting","02/02/2022 03:54:33",""
"Italy","NET.IT112A","Regione Lazio","IT1837A","FERMI","SPO.IT1837A_10_NDIR_2006-12-17_00:00:00","CO","Carbon monoxide (air)","P1Y","Annual mean / 1 calendar year","2021","0.620","mg/m3","88.96","3","Traffic","Urban","12.4694","41.8642","17.0","Roma                                                                            ","IT001C1                                           ","2611777","E2a/UTD AQ e-Reporting","02/02/2022 03:54:33",""
"Italy","NET.IT282A","RETE REGIONALE QUALITÀ ARIA AMBIENTE","IT0461A","FALCONARA SCUOLA","SPO.IT0461A_20_GC-FID_2003-08-03_00:00:00","C6H6","Benzene (air)","P1Y","Annual mean / 1 calendar year","2021","0.622","ug/m3","68.58","3","Industrial","Suburban","13.3875","43.6333","10.0","","","","E2a/UTD AQ e-Reporting","02/02/2022 03:54:33",""
"Italy","NET.IT116A","MONITORAGGIO AMBIENTALE DELLA REGIONE CAMPANIA A CURA DELL'A.R.P.A.C.","IT1491A","NA07 ENTE FERROVIE","SPO.IT1491A_10_NDIR_1993-08-02_00:00:00","CO","Carbon monoxide (air)","P1Y","Annual mean / 1 calendar year","2021","0.627","mg/m3","86.93","3","Traffic","Urban","14.2717","40.8536","13.0","Napoli                                                                          ","IT003K1                                           ","3099849","E2a/UTD AQ e-Reporting","02/02/2022 03:54:33",""
"Italy","NET.IT137A","RETE DI RILEVAMENTO DELLA QUALITA' DELL'ARIA DELLA CITTA' DI PESCARA","IT1264A","PE - VIA FIRENZE","SPO.IT1264A_20_GC-FID_2004-09-15_00:00:00","C6H6","Benzene (air)","P1Y","Annual mean / 1 calendar year","2021","0.630","ug/m3","89.89","3","Traffic","Urban","14.2131","42.4664","9.0","Pescara                                                                         ","IT019C1                                           ","119285","E2a/UTD AQ e-Reporting","02/02/2022 03:54:33",""
"Italy","NET.IT279A","RETE REGIONALE QUALITA' DELL'ARIA DELLA TOSCANA","IT1681A","AR-CASA-STABBI","SPO.IT1681A_38_chemi_2005-04-23_00:00:00","NO","Nitrogen monoxide (air)","P1Y","Annual mean / 1 calendar year","2021","0.631","ug/m3","89.27","3","Background","Rural","11.9017","43.6603","650.0","","","","E2a/UTD AQ e-Reporting","02/02/2022 03:54:33",""
"Italy","NET.IT282A","RETE REGIONALE QUALITÀ ARIA AMBIENTE","IT0459A","CHIARAVALLE2","SPO.IT0459A_20_GC-FID_2007-01-01_00:00:00","C6H6","Benzene (air)","P1Y","Annual mean / 1 calendar year","2021","0.631","ug/m3","56.51","3","Background","Suburban","13.3419","43.5989","15.0","","","","E2a/UTD AQ e-Reporting","02/02/2022 03:54:33",""
"Italy","NET.IT100A","Rete di Rilevamento della Qualità dell'Aria della Provincia di Pavia","IT1735A","VOGHERA - VIA POZZONI","SPO.IT1735A_10_NDIR_2005-07-28_00:00:00","CO","Carbon monoxide (air)","P1Y","Annual mean / 1 calendar year","2021","0.637","mg/m3","92.73","3","Background","Urban","9.0094","45.0003","90.0","","","","E2a/UTD AQ e-Reporting","02/02/2022 03:54:33",""
"Italy","NET.IT282A","RETE REGIONALE QUALITÀ ARIA AMBIENTE","IT1827A","Ancona Cittadella","SPO.IT1827A_20_GC-FID_2006-10-01_00:00:00","C6H6","Benzene (air)","P1Y","Annual mean / 1 calendar year","2021","0.639","ug/m3","65.95","3","Background","Urban","13.5086","43.6117","100.0","Ancona                                                                          ","IT017C1                                           ","100447","E2a/UTD AQ e-Reporting","02/02/2022 03:54:33",""
"Italy","NET.IT255A","RETE REGIONALE DI QUALITÀ DELL'ARIA DELLA REGIONE EMILIA-ROMAGNA","IT1159A","PORTA SAN FELICE","SPO.IT1159A_10_NDIR_1998-01-02_00:00:00","CO","Carbon monoxide (air)","P1Y","Annual mean / 1 calendar year","2021","0.644","mg/m3","84.02","3","Traffic","Urban","11.3283","44.4997","54.0","Bologna                                                                         ","IT009C1                                           ","380027","E2a/UTD AQ e-Reporting","02/02/2022 03:54:33",""
"Italy","NET.IT282A","RETE REGIONALE QUALITÀ ARIA AMBIENTE","IT0460A","JESI","SPO.IT0460A_10_NDIR_2006-12-01_00:00:00","CO","Carbon monoxide (air)","P1Y","Annual mean / 1 calendar year","2021","0.645","mg/m3","82.50","3","Traffic","Urban","13.2450","43.5269","100.0","","","","E2a/UTD AQ e-Reporting","02/02/2022 03:54:33",""
"Italy","NET.IT116A","MONITORAGGIO AMBIENTALE DELLA REGIONE CAMPANIA A CURA DELL'A.R.P.A.C.","IT2269A","Parco Mercatello","SPO.IT2269A_20_GC-PID_2016-03-19_00:00:00","C6H6","Benzene (air)","P1Y","Annual mean / 1 calendar year","2021","0.646","ug/m3","86.08","3","Background","Urban","14.8045","40.6614","11.0","Salerno                                                                         ","IT032C1                                           ","136954","E2a/UTD AQ e-Reporting","02/02/2022 03:54:33",""
"Italy","NET.IT112A","Regione Lazio","IT0953A","VILLA ADA","SPO.IT0953A_20_GC-FID_1997-10-01_00:00:00","C6H6","Benzene (air)","P1Y","Annual mean / 1 calendar year","2021","0.646","ug/m3","84.89","3","Background","Urban","12.5069","41.9328","50.0","Roma                                                                            ","IT001C1                                           ","2611777","E2a/UTD AQ e-Reporting","02/02/2022 03:54:33",""
